"","address","lon","lat"
"1","191126, г.Санкт-Петербург, Загородный проспект, д. 36, литера А",30.3377898,59.9241529
"2","195009, г.Санкт-Петербург, улица Комсомола, д. 33, литера А",30.3581873,59.9549871
"3","191104, г.Санкт-Петербург, улица Жуковского, д. 7-9, литера А",30.351413,59.935795
"4","191025, г.Санкт-Петербург, улица Маяковского, д. 2/94, литера А",30.353661,59.93244
"5","191123, г.Санкт-Петербург, Кирочная улица, д. 23, литера А",30.3616727,59.9436674
"6","191104, г.Санкт-Петербург, Литейный проспект, д. 46, литера А",30.348631,59.937578
"7","191119, г.Санкт-Петербург, Коломенская улица, д. 35-37, литера А",30.35143,59.921697
"8","191186, г.Санкт-Петербург, Невский проспект, д. 20, литера А",30.3219437,59.9360843
"9","191186, г.Санкт-Петербург, Невский проспект, д. 20, литера А",30.3219437,59.9360843
"10","191011, г.Санкт-Петербург, Караванная улица, д. 6, литера А",30.341719,59.937011
"11","191040, г.Санкт-Петербург, Лиговский проспект, д. 56, литера Г",30.357466,59.924388
"12","193036, г.Санкт-Петербург, Невский проспект, д. 140, литера А",30.368741,59.929787
"13","191014, г.Санкт-Петербург, улица Маяковского, д. 11, литера А",30.355134,59.9371163
"14","192241, г.Санкт-Петербург, Пражская улица, д. 35, литера А",30.39921,59.864247
"15","191023, г.Санкт-Петербург, Садовая улица, д. 28-30, к. 20",30.3375562,59.9346057
"16","г.Санкт-Петербург, Садовая улица, д. 28-30, к. 26",30.3291386,59.9313147
"17","191025, г.Санкт-Петербург, улица Маяковского, д. 1/96, литера А",30.3542375,59.9324235
"18","191040, г.Санкт-Петербург, Лиговский проспект, д. 47, литера А",30.3598295,59.929816
"19","198013, г.Санкт-Петербург, Можайская улица, д. 45, литера Б",30.3298989,59.9135647
"20","190068, г.Санкт-Петербург, Садовая улица, д. 49, литера А",30.3125315,59.9247639
"21","193019, г.Санкт-Петербург, проспект Обуховской Обороны, д. 17, литера А",30.4010077,59.9169428
"22","193019, г.Санкт-Петербург, проспект Обуховской Обороны, д. 17, литера А",30.4010077,59.9169428
"23","193029, г.Санкт-Петербург, проспект Обуховской Обороны, д. 73, литера А",30.424768,59.901857
"24","193029, г.Санкт-Петербург, проспект Обуховской Обороны, д. 87, литера А",30.428292,59.899669
"25","198259, г.Санкт-Петербург, проспект Ветеранов, д. 160, литера А",30.144248,59.834982
"26","191119, г.Санкт-Петербург, Лиговский проспект, д. 119, литера В",30.352282,59.91886
"27","195043, г.Санкт-Петербург, Камышинская улица, д. 15, литера И",30.5142968,59.9801444
"28","191104, г.Санкт-Петербург, улица Маяковского, д. 36-38, литера А",30.354893,59.940309
"29","191023, г.Санкт-Петербург, Садовая улица, д. 28-30, к. 40",30.3375562,59.9346057
"30","191011, г.Санкт-Петербург, набережная реки Фонтанки, д. 51-53, литера А",30.3376755,59.9297947
"31","191014, г.Санкт-Петербург, улица Жуковского, д. 10, литера А",30.352236,59.93612
"32","191023, г.Санкт-Петербург, Гороховая улица, д. 32, литера А",30.320883,59.929771
"33","191040, г.Санкт-Петербург, Лиговский проспект, д. 53, литера А",30.3592878,59.9292513
"34","191023, г.Санкт-Петербург, Гороховая улица, д. 50, литера А",30.326017,59.925978
"35","192286, г.Санкт-Петербург, Альпийский переулок, д. 30, литера А",30.3874004,59.8543826
"36","192286, г.Санкт-Петербург, Альпийский переулок, д. 30, литера А",30.3874004,59.8543826
"37","192007, г.Санкт-Петербург, Лиговский проспект, д. 161, литера А",30.34893,59.91395
"38","197101, г.Санкт-Петербург, Большой  проспект П.С., д. 61/3, литера А",30.2918515,59.9530768
"39","191104, г.Санкт-Петербург, улица Чехова, д. 10, литера Г",30.352451,59.93781
"40","191023, г.Санкт-Петербург, Гороховая улица, д. 26, литера А",30.3197992,59.9302108
"41","191023, г.Санкт-Петербург, Садовая улица, д. 28-30, к. 18-19",30.3375562,59.9346057
"42","191023, г.Санкт-Петербург, Садовая улица, д. 28-30, к. 18-19",30.3375562,59.9346057
"43","191023, г.Санкт-Петербург, Садовая улица, д. 28-30, к. 18-19",30.3375562,59.9346057
"44","191186, г.Санкт-Петербург, Гороховая улица, д. 8/13, литера А",30.3118592,59.9355856
"45","191186, г.Санкт-Петербург, Большая Морская улица, д. 13, литера А",30.315814,59.935264
"46","191187, г.Санкт-Петербург, Литейный проспект, д. 11, литера А",30.347514,59.945118
"47","195176, г.Санкт-Петербург, шоссе Революции, д. 15, литера А",30.418819,59.95916
"48","195176, г.Санкт-Петербург, Панфилова улица, д. 26, литера А",30.417243,59.95244
"49","194356, г.Санкт-Петербург, улица Есенина, д. 22, к. 1, литера А",30.336631,60.046003
"50","193036, г.Санкт-Петербург, Невский проспект, д. 111/3, литера А",30.3125753,59.9368237
"51","190068, г.Санкт-Петербург, набережная реки Фонтанки, д. 137, литера А",30.302802,59.918807
"52","191023, г.Санкт-Петербург, Садовая улица, д. 28-30, к. 3",30.3265151,59.9298431
"53","191011, г.Санкт-Петербург, Караванная улица, д. 8, литера А",30.3418212,59.936794
"54","190031, г.Санкт-Петербург, Спасский переулок, д. 1/46, литера А",30.3168528,59.9293626
"55","197101, г.Санкт-Петербург, Каменноостровский проспект, д. 16, литера А",30.317432,59.959384
"56","191040, г.Санкт-Петербург, Лиговский проспект, д. 56, литера А",30.357466,59.924388
"57","191014, г.Санкт-Петербург, улица Жуковского, д. 18, литера А",30.356377,59.936074
"58","198152, г.Санкт-Петербург, проспект Стачек, д. 74/1, литера А",30.2741161,59.8990268
"59","191186, г.Санкт-Петербург, Невский проспект, д. 22-24, литера А",30.3242128,59.9358955
"60","191186, г.Санкт-Петербург, Невский проспект, д. 22-24, литера А",30.3242128,59.9358955
"61","191186, г.Санкт-Петербург, Невский проспект, д. 22-24, литера А",30.3242128,59.9358955
"62","191186, г.Санкт-Петербург, Невский проспект, д. 22-24, литера А",30.3242128,59.9358955
"63","191186, г.Санкт-Петербург, Невский проспект, д. 22-24, литера А",30.3242128,59.9358955
"64","196070, г.Санкт-Петербург, Московский проспект, д. 179, литера А",30.320312,59.85876
"65","197136, г.Санкт-Петербург, Большой  проспект П.С., д. 74, литера А",30.307451,59.963131
"66","190031, г.Санкт-Петербург, Садовая улица, д. 42, литера А",30.3161496,59.925716
"67","190031, г.Санкт-Петербург, Садовая улица, д. 42, литера А",30.3161496,59.925716
"68","190031, г.Санкт-Петербург, Садовая улица, д. 42, литера А",30.3161496,59.925716
"69","191025, г.Санкт-Петербург, Невский проспект, д. 81, литера А",30.349292,59.9325937
"70","197022, г.Санкт-Петербург, Каменноостровский проспект, д. 67, литера А",30.30474,59.974122
"71","199034, г.Санкт-Петербург, Университетская набережная, д. 21, литера В",30.288027,59.937018
"72","199034, г.Санкт-Петербург, Университетская набережная, д. 21, литера В",30.288027,59.937018
"73","190031, г.Санкт-Петербург, улица Ефимова, д. 6, литера А",30.323105,59.924667
"74","190068, г.Санкт-Петербург, набережная реки Фонтанки, д. 121, литера А",30.3112077,59.9206882
"75","193036, г.Санкт-Петербург, Лиговский проспект, д. 29, литера А",30.362009,59.933622
"76","196653, Санкт-Петербург, город Колпино, Павловская улица, д. 15а, литера А",30.586658,59.747692
"77","196084, г.Санкт-Петербург, Смоленская улица, д. 1, литера Д",30.3193593,59.9036859
"78","198005, г.Санкт-Петербург, Измайловский проспект, д. 31, литера А",30.3069585,59.9095129
"79","г.Санкт-Петербург, проспект Стачек, д. 75, литера А",30.259362,59.867189
"80","192174, г.Санкт-Петербург, проспект Александровской Фермы, д. 66а, литера А",30.451306,59.85951
"81","190031, г.Санкт-Петербург, Сенная площадь, д. 13, литера А",30.316034,59.926843
"82","190031, г.Санкт-Петербург, Сенная площадь, д. 13, литера А",30.316034,59.926843
"83","190031, г.Санкт-Петербург, Сенная площадь, д. 13, литера А",30.316034,59.926843
"84","191186, г.Санкт-Петербург, Невский проспект, д. 19, литера А",30.3215562,59.9357268
"85","190031, г.Санкт-Петербург, Столярный переулок, д. 18/69, литера А",30.313318,59.9263879
"86","191011, г.Санкт-Петербург, Думская улица, д. 1-3, литера А",30.328878,59.934162
"87","191011, г.Санкт-Петербург, Думская улица, д. 1-3, литера А",30.328878,59.934162
"88","191011, г.Санкт-Петербург, Думская улица, д. 1-3, литера А",30.328878,59.934162
"89","г.Санкт-Петербург, улица Марата, д. 80, литера В",30.341487,59.92005
"90","193168, г.Санкт-Петербург, улица Антонова-Овсеенко, д. 3, литера Н",30.458158,59.905637
"91","191023, г.Санкт-Петербург, Мучной переулок, д. 2, литера Г",30.3233392,59.9300065
"92","191011, г.Санкт-Петербург, набережная канала Грибоедова, д. 28/1, литера А",30.3258119,59.9326038
"93","199034, г.Санкт-Петербург, Университетская набережная, д. 23, литера А",30.28762,59.936894
"94","199004, г.Санкт-Петербург, 7-я линия В.О., д. 40, литера Б",30.2794851,59.9418213
"95","192071, г.Санкт-Петербург, Бухарестская улица, д. 31, к. 1, литера А",30.384408,59.865804
"96","199026, г.Санкт-Петербург, Большой проспект В.О., д. 62, литера В",30.259021,59.9321413
"97","197198, г.Санкт-Петербург, Кронверкский проспект, д. 51, литера В",30.3090114,59.9557442
"98","199053, г.Санкт-Петербург, Биржевой переулок, д. 1/10, литера А",30.2941401,59.9452584
"99","199053, г.Санкт-Петербург, 1-я линия В.О., д. 44, литера А",30.286004,59.945105
"100","197022, г.Санкт-Петербург, Каменноостровский проспект, д. 35/75, литера А",30.303785,59.975386
"101","190000, г.Санкт-Петербург, Галерная улица, д. 9, литера А",30.2984632,59.9346812
"102","190000, г.Санкт-Петербург, Галерная улица, д. 9, литера А",30.2984632,59.9346812
"103","191180, г.Санкт-Петербург, набережная реки Фонтанки, д. 92, литера А",30.3266408,59.9245197
"104","191025, г.Санкт-Петербург, Невский проспект, д. 67, литера А",30.353736,59.93166
"105","190031, г.Санкт-Петербург, улица Ефимова, д. 1/4, литера А",30.3188896,59.9264383
"106","190000, г.Санкт-Петербург, Большая Морская улица, д. 55, литера А",30.302408,59.931501
"107","191040, г.Санкт-Петербург, Пушкинская улица, д. 2/79, литера А",30.3577119,59.9290718
"108","197101, г.Санкт-Петербург, Каменноостровский проспект, д. 13/2, литера А",30.317902,59.959756
"109","193015, г.Санкт-Петербург, Суворовский проспект, д. 42, литера Б",30.379864,59.941916
"110","197198, г.Санкт-Петербург, Введенская улица, д. 22, литера А",30.3068394,59.9553895
"111","193024, г.Санкт-Петербург, Невский проспект, д. 146, литера А",30.3713653,59.9288312
"112","192029, г.Санкт-Петербург, проспект Обуховской Обороны, д. 127, литера А",30.4305172,59.8986925
"113","197110, г.Санкт-Петербург, Большая Зеленина улица, д. 13, литера А",30.2924403,59.9613932
"114","197110, г.Санкт-Петербург, Большая Зеленина улица, д. 13, литера А",30.2924403,59.9613932
"115","197110, г.Санкт-Петербург, Большая Зеленина улица, д. 13, литера А",30.2924403,59.9613932
"116","196047, г.Санкт-Петербург, Каменноостровский проспект, д. 11, литера А",30.319813,59.959228
"117","196047, г.Санкт-Петербург, Каменноостровский проспект, д. 11, литера А",30.319813,59.959228
"118","191104, г.Санкт-Петербург, Литейный проспект, д. 53, литера А",30.347621,59.936304
"119","191104, г.Санкт-Петербург, Литейный проспект, д. 53, литера А",30.347621,59.936304
"120","191002, г.Санкт-Петербург, улица Рубинштейна, д. 36, литера А",30.3434196,59.9277468
"121","191040, г.Санкт-Петербург, Лиговский проспект, д. 56, литера Е",30.357466,59.924388
"122","194356, г.Санкт-Петербург, Заповедная улица, д. 30, литера А",30.273564,60.043603
"123","г.Санкт-Петербург, Невский проспект, д. 12, литера А",30.315731,59.93682
"124","198020, г.Санкт-Петербург, Старо-Петергофский проспект, д. 26, литера В",30.2763959,59.9061832
"125","190121, г.Санкт-Петербург, набережная реки Мойки, д. 122, литера В",30.283723,59.928014
"126","192171, г.Санкт-Петербург, проспект Обуховской Обороны, д. 149, литера Э",30.4435732,59.8838011
"127","191119, г.Санкт-Петербург, улица Константина Заслонова, д. 18, литера А",30.347224,59.918645
"128","193315, г.Санкт-Петербург, проспект Большевиков, д. 71, к. 1, литера Ч",30.478753,59.877989
"129","191011, г.Санкт-Петербург, улица Зодчего Росси, д. 1-3, литера А",30.335041,59.930099
"130","191011, г.Санкт-Петербург, улица Зодчего Росси, д. 1-3, литера А",30.335041,59.930099
"131","196084, г.Санкт-Петербург, Московский проспект, д. 79, литера А",30.3177402,59.9018937
"132","196084, г.Санкт-Петербург, Московский проспект, д. 79, литера А",30.3177402,59.9018937
"133","196105, г.Санкт-Петербург, улица Решетникова, д. 12, литера П",30.323795,59.879139
"134","198264, г.Санкт-Петербург, улица Летчика Пилютова, д. 34, к. 2, литера А",30.141117,59.836869
"135","192131, г.Санкт-Петербург, улица Бабушкина, д. 98а, литера А",30.475973,59.861203
"136","196084, г.Санкт-Петербург, Московский проспект, д. 138, литера А",30.3203343,59.8868269
"137","191025, г.Санкт-Петербург, улица Маяковского, д. 15, литера А",30.355463,59.937909
"138","191186, г.Санкт-Петербург, Большая Морская улица, д. 7, литера А",30.317204,59.936797
"139","191123, г.Санкт-Петербург, Кирочная улица, д. 38, литера Б",30.3649067,59.9440992
"140","198215, г.Санкт-Петербург, Ленинский проспект, д. 117, к. 1, литера А",30.2482165,59.8507112
"141","197110, г.Санкт-Петербург, Барочная улица, д. 2, литера А",30.285693,59.96476
"142","197022, г.Санкт-Петербург, Каменноостровский проспект, д. 61, литера А",30.305632,59.972961
"143","190000, г.Санкт-Петербург, набережная реки Мойки, д. 94, литера Б",30.2980533,59.9292671
"144","191011, г.Санкт-Петербург, Садовая улица, д. 12, литера А",30.3359891,59.9353528
"145","195248, г.Санкт-Петербург, Партизанская улица, д. 8, литера Б",30.442582,59.948435
"146","193144, г.Санкт-Петербург, 10-я Советская улица, д. 24, литера Б",30.384109,59.935647
"147","г.Санкт-Петербург, Загородный проспект, д. 64, литера А",30.322487,59.91817
"148","197342, г.Санкт-Петербург, Сердобольская улица, д. 35, литера Б",30.316808,59.989681
"149","195009, г.Санкт-Петербург, улица Комсомола, д. 43, литера А",30.3541591,59.9556009
"150","191186, г.Санкт-Петербург, набережная канала Грибоедова, д. 14, литера А",30.3269958,59.9359348
"151","191186, г.Санкт-Петербург, Невский проспект, д. 20, литера А",30.3219437,59.9360843
"152","195009, г.Санкт-Петербург, улица Комсомола, д. 16, литера А",30.357869,59.95476
"153","191040, г.Санкт-Петербург, Лиговский проспект, д. 56, литера Г",30.357466,59.924388
"154","191025, г.Санкт-Петербург, улица Маяковского, д. 6, литера А",30.353911,59.93311
"155","192241, г.Санкт-Петербург, Пражская улица, д. 35, литера А",30.39921,59.864247
"156","191014, г.Санкт-Петербург, улица Маяковского, д. 23/6, литера А",30.355595,59.939832
"157","191023, г.Санкт-Петербург, Садовая улица, д. 28-30, к. 28",30.3375562,59.9346057
"158","191023, г.Санкт-Петербург, Садовая улица, д. 28-30, к. 20",30.3375562,59.9346057
"159","191023, г.Санкт-Петербург, Садовая улица, д. 28-30, к. 20",30.3375562,59.9346057
"160","196105, г.Санкт-Петербург, Московский проспект, д. 147, литера А",30.3191882,59.8766711
"161","191126, г.Санкт-Петербург, улица Марата, д. 78, литера А",30.3415903,59.9201706
"162","191002, г.Санкт-Петербург, улица Рубинштейна, д. 25, литера А",30.3425821,59.9274096
"163","191104, г.Санкт-Петербург, улица Маяковского, д. 48, литера А",30.3551057,59.9421001
"164","191186, г.Санкт-Петербург, набережная канала Грибоедова, д. 15, литера А",30.3262521,59.9366643
"165","197198, г.Санкт-Петербург, Большой  проспект П.С., д. 38-40, литера А",30.29913,59.958776
"166","197198, г.Санкт-Петербург, Большой  проспект П.С., д. 47, литера А",30.3052494,59.9613908
"167","197198, г.Санкт-Петербург, Большой  проспект П.С., д. 17, литера А",30.2963827,59.9558769
"168","197136, г.Санкт-Петербург, Большой  проспект П.С., д. 70-72, литера А",30.306652,59.96281
"169","197348, г.Санкт-Петербург, Богатырский проспект, д. 9, литера А",30.280369,59.99947
"170","193024, г.Санкт-Петербург, Невский проспект, д. 158, литера А",30.375261,59.927458
"171","190000, г.Санкт-Петербург, Гороховая улица, д. 17/56, литера А",30.329402,59.9238468
"172","191011, г.Санкт-Петербург, Итальянская улица, д. 16/19, литера А",30.342653,59.9354252
"173","190068, г.Санкт-Петербург, набережная канала Грибоедова, д. 106, литера А",30.3039758,59.9240791
"174","193029, г.Санкт-Петербург, проспект Обуховской Обороны, д. 113, литера А",30.438224,59.89342
"175","196084, г.Санкт-Петербург, Московский проспект, д. 136, литера Г",30.3202912,59.8873013
"176","190031, г.Санкт-Петербург, Садовая улица, д. 40, литера Б",30.3203127,59.9276653
"177","192212, г.Санкт-Петербург, Белградская улица, д. 30, литера А",30.3659422,59.857314
"178","191119, г.Санкт-Петербург, Днепропетровская улица, д. 13, литера Б",30.362652,59.918634
"179","193171, г.Санкт-Петербург, переулок Матюшенко, д. 10, литера А",30.441649,59.876188
"180","193171, г.Санкт-Петербург, переулок Матюшенко, д. 10, литера А",30.441649,59.876188
"181","191040, г.Санкт-Петербург, Лиговский проспект, д. 44, литера Б",30.3584758,59.9260345
"182","191040, г.Санкт-Петербург, Лиговский проспект, д. 64-66, литера А",30.356413,59.922907
"183","г.Санкт-Петербург, Садовая улица, д. 29, литера А",30.3225746,59.9289965
"184","192286, г.Санкт-Петербург, Альпийский переулок, д. 30, литера А",30.3874004,59.8543826
"185","191023, г.Санкт-Петербург, Садовая улица, д. 28-30, к. 1",30.3265151,59.9298431
"186","197198, г.Санкт-Петербург, Большой  проспект П.С., д. 14, литера А",30.292807,59.954535
"187","190068, г.Санкт-Петербург, набережная канала Грибоедова, д. 162, литера А",30.3028263,59.9241748
"188","191002, г.Санкт-Петербург, Загородный проспект, д. 5, литера А",30.3456069,59.9275642
"189","191023, г.Санкт-Петербург, Садовая улица, д. 28-30, к. 18-19",30.3375562,59.9346057
"190","191023, г.Санкт-Петербург, Садовая улица, д. 28-30, к. 18-19",30.3375562,59.9346057
"191","191028, г.Санкт-Петербург, Литейный проспект, д. 24, литера А",30.348903,59.942496
"192","191002, г.Санкт-Петербург, Загородный проспект, д. 14, литера А",30.3439224,59.9266143
"193","192238, г.Санкт-Петербург, Бухарестская улица, д. 72, к. 1, литера А",30.379571,59.87268
"194","191023, г.Санкт-Петербург, набережная реки Фонтанки, д. 77, литера А",30.3275221,59.9259091
"195","191186, г.Санкт-Петербург, набережная канала Грибоедова, д. 29, литера А",30.3241536,59.9322195
"196","191028, г.Санкт-Петербург, набережная реки Фонтанки, д. 28, литера А",30.3428212,59.9392152
"197","191014, г.Санкт-Петербург, Литейный проспект, д. 45/8, литера А",30.347828,59.938632
"198","193015, г.Санкт-Петербург, Кирочная улица, д. 47, литера А",30.379304,59.942684
"199","191028, г.Санкт-Петербург, Моховая улица, д. 20, литера А",30.3455941,59.9435602
"200","191123, г.Санкт-Петербург, Виленский переулок, д. 4, литера А",30.3619212,59.9402952
"201","191187, г.Санкт-Петербург, Литейный проспект, д. 11, литера А",30.347514,59.945118
"202","191123, г.Санкт-Петербург, улица Восстания, д. 41, литера А",30.3607189,59.9427503
"203","191186, г.Санкт-Петербург, Невский проспект, д. 18, литера А",30.3185953,59.9364647
"204","197110, г.Санкт-Петербург, Большая Зеленина улица, д. 14/18, литера А",30.2909179,59.9616713
"205","197198, г.Санкт-Петербург, Большой  проспект П.С., д. 9/1, литера А",30.2937163,59.9542831
"206","191002, г.Санкт-Петербург, Загородный проспект, д. 22, литера А",30.3416808,59.9256736
"207","г.Санкт-Петербург, проспект Стачек, д. 28, литера А",30.2713028,59.8895945
"208","196084, г.Санкт-Петербург, Московский проспект, д. 78, литера К",30.3197999,59.9056305
"209","г.Санкт-Петербург, Дачный проспект, д. 9, к. 1, литера А",30.2443568,59.8466129
"210","191023, г.Санкт-Петербург, Садовая улица, д. 28-30, к. 3",30.3265151,59.9298431
"211","191011, г.Санкт-Петербург, Караванная улица, д. 8, литера А",30.3418212,59.936794
"212","191040, г.Санкт-Петербург, Лиговский проспект, д. 56, литера А",30.357466,59.924388
"213","г.Санкт-Петербург, проспект Стачек, д. 69, литера А",30.25917,59.869366
"214","196158, г.Санкт-Петербург, Пулковская улица, д. 11, литера А",30.348702,59.838294
"215","193029, г.Санкт-Петербург, проспект Обуховской Обороны, д. 68, литера А",30.427234,59.901163
"216","г.Санкт-Петербург, проспект Стачек, д. 16, литера А",30.278765,59.896345
"217","191186, г.Санкт-Петербург, Невский проспект, д. 22-24, литера А",30.3242128,59.9358955
"218","191025, г.Санкт-Петербург, Невский проспект, д. 81, литера А",30.349292,59.9325937
"219","191023, г.Санкт-Петербург, Садовая улица, д. 32/1, литера А",30.323797,59.92906
"220","191014, г.Санкт-Петербург, улица Маяковского, д. 34, литера А",30.354875,59.939882
"221","195220, г.Санкт-Петербург, проспект Науки, д. 36, литера А",30.419924,60.008335
"222","197706, Санкт-Петербург, город Сестрорецк, улица Володарского, д. 7/9, литера А",29.9731266,60.0966826
"223","194356, г.Санкт-Петербург, улица Асафьева, д. 9, к. 1, литера А",30.327412,60.0473078
"224","198005, г.Санкт-Петербург, 7-я Красноармейская улица, д. 16, литера Б",30.3117205,59.9114752
"225","190000, г.Санкт-Петербург, Гороховая улица, д. 51, литера А",30.3109941,59.9358634
"226","192171, г.Санкт-Петербург, Фарфоровская улица, д. 18-20, литера А",30.434729,59.879318
"227","192174, г.Санкт-Петербург, проспект Александровской Фермы, д. 66а, литера А",30.451306,59.85951
"228","190031, г.Санкт-Петербург, Гороховая улица, д. 55, литера А",30.3191988,59.9303535
"229","196084, г.Санкт-Петербург, Московский проспект, д. 93, литера Б",30.318731,59.89516
"230","191011, г.Санкт-Петербург, Думская улица, д. 1-3, литера А",30.328878,59.934162
"231","191011, г.Санкт-Петербург, Думская улица, д. 1-3, литера А",30.328878,59.934162
"232","198103, г.Санкт-Петербург, 8-я Красноармейская улица, д. 15-17, литера Б",30.3007868,59.9145558
"233","195027, г.Санкт-Петербург, Миронова улица, д. 7, литера А",30.412072,59.952777
"234","191186, г.Санкт-Петербург, Малая Конюшенная улица, д. 16/26, литера А",30.32524,59.9360137
"235","191011, г.Санкт-Петербург, набережная канала Грибоедова, д. 28/1, литера А",30.3258119,59.9326038
"236","191011, г.Санкт-Петербург, Невский проспект, д. 32-34, литера А",30.328303,59.935387
"237","198020, г.Санкт-Петербург, Нарвский проспект, д. 15, литера А",30.273488,59.903961
"238","194354, г.Санкт-Петербург, Большая Озерная улица, д. 84, литера Б",30.301718,60.042595
"239","198005, г.Санкт-Петербург, Московский проспект, д. 49, литера А",30.3178841,59.911516
"240","199178, г.Санкт-Петербург, 11-я линия В.О., д. 34/47, литера А",30.2728815,59.9418948
"241","191104, г.Санкт-Петербург, улица Маяковского, д. 50, литера А",30.3550751,59.9428207
"242","196135, г.Санкт-Петербург, Московский проспект, д. 200, литера А",30.321546,59.860363
"243","190000, г.Санкт-Петербург, Галерная улица, д. 9, литера А",30.2984632,59.9346812
"244","190000, г.Санкт-Петербург, Галерная улица, д. 9, литера А",30.2984632,59.9346812
"245","190000, г.Санкт-Петербург, Галерная улица, д. 9, литера А",30.2984632,59.9346812
"246","191180, г.Санкт-Петербург, набережная реки Фонтанки, д. 92, литера А",30.3266408,59.9245197
"247","199048, г.Санкт-Петербург, набережная реки Смоленки, д. 27, литера А",30.257085,59.948093
"248","193130, г.Санкт-Петербург, 7-я Советская улица, д. 22, литера В",30.3733124,59.9358947
"249","196620, Санкт-Петербург, город Павловск, Садовая улица, д. 9, литера А",30.439516,59.688262
"250","190000, г.Санкт-Петербург, Большая Морская улица, д. 25, литера А",30.312857,59.934176
"251","Санкт-Петербург, город Красное Село, улица Освобождения, д. 31, к. 1, литера А",30.0775946,59.7445253
"252","191025, г.Санкт-Петербург, Невский проспект, д. 67, литера А",30.353736,59.93166
"253","198013, г.Санкт-Петербург, Можайская улица, д. 1, литера А",30.32462,59.918286
"254","191025, г.Санкт-Петербург, улица Рубинштейна, д. 2/45, литера А",30.346168,59.932462
"255","191014, г.Санкт-Петербург, Литейный проспект, д. 37-39, литера А",30.346992,59.940354
"256","190000, г.Санкт-Петербург, Большая Морская улица, д. 55, литера А",30.302408,59.931501
"257","197110, г.Санкт-Петербург, Большая Зеленина улица, д. 2/42, литера А",30.2954172,59.9593824
"258","191011, г.Санкт-Петербург, набережная реки Фонтанки, д. 29/66, литера А",30.3372723,59.928497
"259","191011, г.Санкт-Петербург, набережная реки Фонтанки, д. 29/66, литера А",30.3372723,59.928497
"260","192281, г.Санкт-Петербург, Купчинская улица, д. 15, к. 1, литера А",30.383907,59.838658
"261","190000, г.Санкт-Петербург, переулок Пирогова, д. 6, литера А",30.30494,59.929382
"262","198096, г.Санкт-Петербург, улица Червонного Казачества, д. 32, литера Б",30.274188,59.865488
"263","196066, г.Санкт-Петербург, Московский проспект, д. 216, литера А",30.322209,59.848739
"264","191104, г.Санкт-Петербург, Литейный проспект, д. 53, литера А",30.347621,59.936304
"265","191104, г.Санкт-Петербург, Литейный проспект, д. 53, литера А",30.347621,59.936304
"266","191040, г.Санкт-Петербург, Лиговский проспект, д. 56, литера Е",30.357466,59.924388
"267","191040, г.Санкт-Петербург, Лиговский проспект, д. 56, литера Е",30.357466,59.924388
"268","197046, г.Санкт-Петербург, улица Куйбышева, д. 23, литера А",30.331558,59.956587
"269","198013, г.Санкт-Петербург, Верейская улица, д. 1/62, литера В",30.323747,59.9178918
"270","191180, г.Санкт-Петербург, Гороховая улица, д. 65, литера А",30.329232,59.92305
"271","191025, г.Санкт-Петербург, набережная реки Фонтанки, д. 40/68, литера А",30.344415,59.933654
"272","197110, г.Санкт-Петербург, Большая Зеленина улица, д. 11/1, литера А",30.2925343,59.9613257
"273","199048, г.Санкт-Петербург, 13-я линия В.О., д. 58-60, литера Д",30.2667934,59.9442105
"274","196084, г.Санкт-Петербург, Московский проспект, д. 81, литера А",30.318281,59.898035
"275","197198, г.Санкт-Петербург, Съезжинская улица, д. 13, литера Б",30.2981078,59.9539767
"276","190000, г.Санкт-Петербург, улица Глинки, д. 3-5-7, литера А",30.295368,59.92722
"277","191104, г.Санкт-Петербург, улица Чехова, д. 12-16, литера В",30.352464,59.938034
"278","195253, г.Санкт-Петербург, улица Маршала Тухачевского, д. 41, литера А",30.4308368,59.9602639
"279","197198, г.Санкт-Петербург, Съезжинская улица, д. 4, литера В",30.295102,59.9543202
"280","190068, г.Санкт-Петербург, набережная реки Фонтанки, д. 127, литера А",30.3070137,59.9197348
"281","197183, г.Санкт-Петербург, улица Савушкина, д. 8, литера А",30.298466,59.986096
"282","196105, г.Санкт-Петербург, Московский проспект, д. 188а, литера АБ",NA,NA
"283","190000, г.Санкт-Петербург, Малая Морская улица, д. 15, литера А",30.3112448,59.9351786
"284","191180, г.Санкт-Петербург, набережная реки Фонтанки, д. 76, литера В",30.335064,59.9266053
"285","196084, г.Санкт-Петербург, Московский проспект, д. 138, литера А",30.3203343,59.8868269
"286","197101, г.Санкт-Петербург, улица Мира, д. 10, литера А",30.316093,59.959954
"287","197110, г.Санкт-Петербург, Большая Зеленина улица, д. 43, литера В",30.2824095,59.9669451
"288","197198, г.Санкт-Петербург, Большой  проспект П.С., д. 31, литера А",30.3009823,59.958768
"289","191011, г.Санкт-Петербург, Садовая улица, д. 12, литера А",30.3359891,59.9353528
"290","191011, г.Санкт-Петербург, Садовая улица, д. 12, литера А",30.3359891,59.9353528
"291","192007, г.Санкт-Петербург, Лиговский проспект, д. 162, литера А",30.349005,59.9120245
"292","192007, г.Санкт-Петербург, Лиговский проспект, д. 172, литера А",30.3486153,59.9113128
"293","192007, г.Санкт-Петербург, Лиговский проспект, д. 215, литера А",30.3469652,59.9104633
"294","192281, г.Санкт-Петербург, Купчинская улица, д. 15, к. 1, литера Г",30.383907,59.838658
"295","191002, г.Санкт-Петербург, улица Рубинштейна, д. 9/3, литера А",30.3447397,59.9303888
"296","191119, г.Санкт-Петербург, Коломенская улица, д. 35-37, литера А",30.35143,59.921697
"297","191186, г.Санкт-Петербург, Невский проспект, д. 20, литера А",30.3219437,59.9360843
"298","191014, г.Санкт-Петербург, Лиговский проспект, д. 17, литера А",30.36385,59.936384
"299","191028, г.Санкт-Петербург, Литейный проспект, д. 22, литера А",30.348975,59.943139
"300","193144, г.Санкт-Петербург, Мытнинская улица, д. 1/20, литера А",30.3785441,59.9348561
"301","г.Санкт-Петербург, проспект Стачек, д. 41, литера А",30.267563,59.88693
"302","191014, г.Санкт-Петербург, улица Жуковского, д. 28, литера А",30.359885,59.936102
"303","191014, г.Санкт-Петербург, улица Маяковского, д. 11, литера А",30.355134,59.9371163
"304","191014, г.Санкт-Петербург, улица Маяковского, д. 11, литера А",30.355134,59.9371163
"305","191011, г.Санкт-Петербург, набережная канала Грибоедова, д. 18-20, литера А",30.3265138,59.9344937
"306","191023, г.Санкт-Петербург, Садовая улица, д. 28-30, к. 20",30.3375562,59.9346057
"307","191023, г.Санкт-Петербург, Садовая улица, д. 28-30, к. 20",30.3375562,59.9346057
"308","г.Санкт-Петербург, Садовая улица, д. 28-30, к. 26",30.3291386,59.9313147
"309","191025, г.Санкт-Петербург, улица Маяковского, д. 1/96, литера А",30.3542375,59.9324235
"310","191025, г.Санкт-Петербург, Невский проспект, д. 88, литера А",30.3519384,59.932425
"311","191025, г.Санкт-Петербург, Невский проспект, д. 88, литера А",30.3519384,59.932425
"312","191040, г.Санкт-Петербург, Пушкинская улица, д. 15, литера А",30.3564498,59.9282701
"313","197198, г.Санкт-Петербург, Большой  проспект П.С., д. 28/1, литера А",30.2972023,59.9568047
"314","191186, г.Санкт-Петербург, Невский проспект, д. 6, литера А",30.31431,59.93701
"315","190000, г.Санкт-Петербург, Большая Морская улица, д. 47, литера А",30.3049556,59.9318464
"316","198005, г.Санкт-Петербург, набережная реки Фонтанки, д. 136, литера А",30.2981086,59.916603
"317","190068, г.Санкт-Петербург, Лермонтовский проспект, д. 30, литера А",30.2970717,59.9179024
"318","190068, г.Санкт-Петербург, Садовая улица, д. 67, литера А",30.3038582,59.9218515
"319","190121, г.Санкт-Петербург, проспект Римского-Корсакова, д. 59, литера А",30.2914476,59.9220138
"320","190000, г.Санкт-Петербург, Гороховая улица, д. 1, литера А",30.310072,59.93617
"321","192102, г.Санкт-Петербург, Стрельбищенская улица, д. 16, литера А",30.3594928,59.8866486
"322","192102, г.Санкт-Петербург, Стрельбищенская улица, д. 16, литера А",30.3594928,59.8866486
"323","192102, г.Санкт-Петербург, Стрельбищенская улица, д. 16, литера А",30.3594928,59.8866486
"324","196084, г.Санкт-Петербург, набережная Обводного канала, д. 82, литера Б",30.3240325,59.90945
"325","192029, г.Санкт-Петербург, улица Крупской, д. 13, литера А",30.433336,59.890667
"326","193171, г.Санкт-Петербург, проспект Обуховской Обороны, д. 131, литера В",30.442237,59.886649
"327","193171, г.Санкт-Петербург, улица Полярников, д. 15, литера А",30.435696,59.877526
"328","192212, г.Санкт-Петербург, Белградская улица, д. 30, литера А",30.3659422,59.857314
"329","192212, г.Санкт-Петербург, Белградская улица, д. 30, литера А",30.3659422,59.857314
"330","192212, г.Санкт-Петербург, Белградская улица, д. 30, литера А",30.3659422,59.857314
"331","192212, г.Санкт-Петербург, Белградская улица, д. 30, литера А",30.3659422,59.857314
"332","197183, г.Санкт-Петербург, Сестрорецкая улица, д. 2, литера А",30.293576,59.986678
"333","193171, г.Санкт-Петербург, переулок Матюшенко, д. 10, литера А",30.441649,59.876188
"334","191014, г.Санкт-Петербург, улица Жуковского, д. 10, литера А",30.352236,59.93612
"335","191023, г.Санкт-Петербург, Гороховая улица, д. 32, литера А",30.320883,59.929771
"336","191023, г.Санкт-Петербург, Садовая улица, д. 28-30, к. 17",30.3265151,59.9298431
"337","192286, г.Санкт-Петербург, Альпийский переулок, д. 30, литера А",30.3874004,59.8543826
"338","г.Санкт-Петербург, набережная Мартынова, д. 2, литера А",30.2635513,59.9740309
"339","191025, г.Санкт-Петербург, Невский проспект, д. 53, литера А",30.349453,59.932201
"340","191186, г.Санкт-Петербург, Большая Морская улица, д. 6, литера А",30.317968,59.937222
"341","191023, г.Санкт-Петербург, Садовая улица, д. 28-30, к. 18-19",30.3375562,59.9346057
"342","191186, г.Санкт-Петербург, Невский проспект, д. 11/2, литера А",30.3156225,59.9364316
"343","191011, г.Санкт-Петербург, Итальянская улица, д. 29, литера А",30.339146,59.935556
"344","191119, г.Санкт-Петербург, Лиговский проспект, д. 107, литера А",30.3536064,59.9209108
"345","191014, г.Санкт-Петербург, Литейный проспект, д. 45/8, литера А",30.347828,59.938632
"346","191028, г.Санкт-Петербург, Моховая улица, д. 20, литера А",30.3455941,59.9435602
"347","197110, г.Санкт-Петербург, Большая Зеленина улица, д. 14/18, литера А",30.2909179,59.9616713
"348","196084, г.Санкт-Петербург, Московский проспект, д. 128, литера Б",30.3199313,59.8886234
"349","191002, г.Санкт-Петербург, Загородный проспект, д. 22, литера А",30.3416808,59.9256736
"350","191119, г.Санкт-Петербург, Лиговский проспект, д. 105, литера А",30.354186,59.921762
"351","191011, г.Санкт-Петербург, Садовая улица, д. 14/52, литера А",30.3356482,59.9346517
"352","194044, г.Санкт-Петербург, Большой Сампсониевский проспект, д. 57/2, литера А",30.340429,59.972505
"353","г.Санкт-Петербург, проспект Стачек, д. 67, к. 1, литера А",30.2578526,59.8728761
"354","196158, г.Санкт-Петербург, Пулковская улица, д. 11, литера А",30.348702,59.838294
"355","г.Санкт-Петербург, улица Лени Голикова, д. 96, литера А",30.248519,59.834525
"356","191023, г.Санкт-Петербург, Садовая улица, д. 32/1, литера А",30.323797,59.92906
"357","199034, г.Санкт-Петербург, Университетская набережная, д. 21, литера В",30.288027,59.937018
"358","199034, г.Санкт-Петербург, Университетская набережная, д. 21, литера В",30.288027,59.937018
"359","195298, г.Санкт-Петербург, проспект Наставников, д. 7, к. 1, литера А",30.490536,59.938377
"360","194100, г.Санкт-Петербург, улица Харченко, д. 2/12, литера А",30.3504919,59.9810558
"361","195009, г.Санкт-Петербург, Финский переулок, д. 9, литера А",30.354589,59.956442
"362","191104, г.Санкт-Петербург, Кирочная улица, д. 11, литера А",30.3547822,59.9437741
"363","197136, г.Санкт-Петербург, Бармалеева улица, д. 7, литера А",30.3066728,59.9640799
"364","г.Санкт-Петербург, проспект Стачек, д. 75, литера А",30.259362,59.867189
"365","190031, г.Санкт-Петербург, Сенная площадь, д. 13, литера А",30.316034,59.926843
"366","190000, г.Санкт-Петербург, Гороховая улица, д. 25, литера А",30.3178914,59.9309917
"367","193019, г.Санкт-Петербург, проспект Обуховской Обороны, д. 39, литера А",30.406794,59.912101
"368","191025, г.Санкт-Петербург, улица Марата, д. 22-24, литера А",30.3536171,59.9279149
"369","190000, г.Санкт-Петербург, Большая Морская улица, д. 40, литера А",30.310966,59.932925
"370","190031, г.Санкт-Петербург, Гороховая улица, д. 47, литера А",30.3224909,59.9271355
"371","191011, г.Санкт-Петербург, набережная канала Грибоедова, д. 28/1, литера А",30.3258119,59.9326038
"372","191011, г.Санкт-Петербург, Невский проспект, д. 32-34, литера А",30.328303,59.935387
"373","г.Санкт-Петербург, улица Маршала Захарова, д. 18, к. 1, литера А",30.1718391,59.8578999
"374","г.Санкт-Петербург, улица Маршала Захарова, д. 18, к. 1, литера А",30.1718391,59.8578999
"375","198329, г.Санкт-Петербург, улица Партизана Германа, д. 22, литера Б",30.1754977,59.840379
"376","199053, г.Санкт-Петербург, 4-я линия В.О., д. 35-37, литера А",30.279937,59.9452108
"377","199053, г.Санкт-Петербург, Кадетская линия В.О., д. 27/5, литера А",30.286007,59.945853
"378","195030, г.Санкт-Петербург, 3-я Жерновская улица, д. 23, литера А",30.4856597,59.9624919
"379","190000, г.Санкт-Петербург, Гороховая улица, д. 23, литера А",30.316912,59.931121
"380","197022, г.Санкт-Петербург, Каменноостровский проспект, д. 35/75, литера А",30.303785,59.975386
"381","196105, г.Санкт-Петербург, Благодатная улица, д. 40, литера А",30.333775,59.87639
"382","195196, г.Санкт-Петербург, Новочеркасский проспект, д. 49/20, литера А",30.4157574,59.9248775
"383","190000, г.Санкт-Петербург, Галерная улица, д. 9, литера А",30.2984632,59.9346812
"384","197110, г.Санкт-Петербург, Большая Зеленина улица, д. 19, литера А",30.2900948,59.9625215
"385","190068, г.Санкт-Петербург, набережная реки Фонтанки, д. 129, литера Б",30.3059612,59.9193908
"386","197022, г.Санкт-Петербург, Каменноостровский проспект, д. 53/22, литера А",30.307247,59.9708642
"387","191002, г.Санкт-Петербург, Разъезжая улица, д. 9, литера Д",30.344106,59.925188
"388","191104, г.Санкт-Петербург, набережная реки Фонтанки, д. 32/1, литера А",30.340174,59.939333
"389","190000, г.Санкт-Петербург, Большая Морская улица, д. 25, литера А",30.312857,59.934176
"390","191025, г.Санкт-Петербург, Невский проспект, д. 67, литера А",30.353736,59.93166
"391","197198, г.Санкт-Петербург, Большой  проспект П.С., д. 44, литера А",30.3010365,59.959359
"392","191123, г.Санкт-Петербург, Кирочная улица, д. 19, литера А",30.3608024,59.9438881
"393","190008, г.Санкт-Петербург, Садовая улица, д. 101, литера А",30.2893902,59.9190525
"394","196105, г.Санкт-Петербург, Московский проспект, д. 186, литера А",30.3207532,59.8727751
"395","192174, г.Санкт-Петербург, бульвар Красных Зорь, д. 8, к. 2, литера З",30.443517,59.870903
"396","191068, г.Санкт-Петербург, Гороховая улица, д. 45, литера А",30.322384,59.927975
"397","195112, г.Санкт-Петербург, Новочеркасский проспект, д. 26/16, литера А",30.4116132,59.9299956
"398","190000, г.Санкт-Петербург, переулок Гривцова, д. 1/64, литера Б",30.3122001,59.93183
"399","191180, г.Санкт-Петербург, Большой Казачий переулок, д. 1/61, литера А",30.3283954,59.923858
"400","191180, г.Санкт-Петербург, Большой Казачий переулок, д. 1/61, литера А",30.3283954,59.923858
"401","197101, г.Санкт-Петербург, Каменноостровский проспект, д. 13/2, литера А",30.317902,59.959756
"402","190000, г.Санкт-Петербург, переулок Пирогова, д. 6, литера А",30.30494,59.929382
"403","191119, г.Санкт-Петербург, Днепропетровская улица, д. 11, литера Б",30.3628382,59.9187734
"404","197198, г.Санкт-Петербург, Введенская улица, д. 22, литера А",30.3068394,59.9553895
"405","199034, г.Санкт-Петербург, 13-я линия В.О., д. 2/19, литера Б",30.277744,59.934745
"406","197110, г.Санкт-Петербург, Большая Зеленина улица, д. 13, литера А",30.2924403,59.9613932
"407","193124, г.Санкт-Петербург, улица Пролетарской Диктатуры, д. 6, литера А",30.389212,59.947952
"408","193036, г.Санкт-Петербург, 1-я Советская улица, д. 10, литера Г",30.3648484,59.9318555
"409","191028, г.Санкт-Петербург, набережная реки Фонтанки, д. 14, литера А",30.3392785,59.9419346
"410","191040, г.Санкт-Петербург, Лиговский проспект, д. 56, литера Е",30.357466,59.924388
"411","191028, г.Санкт-Петербург, Моховая улица, д. 27-29, литера А",30.3449937,59.9420184
"412","191002, г.Санкт-Петербург, Загородный проспект, д. 13, литера А",30.3417502,59.9261079
"413","191002, г.Санкт-Петербург, Загородный проспект, д. 13, литера А",30.3417502,59.9261079
"414","г.Санкт-Петербург, Ленинский проспект, д. 57, к. 1, литера А",30.1757617,59.8616705
"415","191180, г.Санкт-Петербург, Загородный проспект, д. 45, литера А",30.3299378,59.9214648
"416","197101, г.Санкт-Петербург, Каменноостровский проспект, д. 26-28, литера А",30.313908,59.962235
"417","195196, г.Санкт-Петербург, Новочеркасский проспект, д. 19, литера А",30.407611,59.936505
"418","196084, г.Санкт-Петербург, Московский проспект, д. 86, литера А",30.319439,59.90335
"419","198013, г.Санкт-Петербург, Верейская улица, д. 48, литера А",30.329418,59.913402
"420","195043, г.Санкт-Петербург, Братская улица, д. 14, литера А",30.521687,59.974971
"421","Санкт-Петербург, город Петергоф, Эрлеровский  бульвар, д. 12/2, литера Б",29.91381,59.871995
"422","192171, г.Санкт-Петербург, проспект Обуховской Обороны, д. 149, литера Х",30.4435732,59.8838011
"423","191186, г.Санкт-Петербург, набережная реки Мойки, д. 40, литера А",30.320331,59.9372687
"424","196084, г.Санкт-Петербург, Московский проспект, д. 81, литера А",30.318281,59.898035
"425","196084, г.Санкт-Петербург, Московский проспект, д. 81, литера А",30.318281,59.898035
"426","190000, г.Санкт-Петербург, Конногвардейский бульвар, д. 9, литера А",30.299599,59.934029
"427","191180, г.Санкт-Петербург, Загородный проспект, д. 37/70, литера А",30.3322161,59.9225126
"428","191180, г.Санкт-Петербург, Загородный проспект, д. 37/70, литера А",30.3322161,59.9225126
"429","193144, г.Санкт-Петербург, 10-я Советская улица, д. 17, литера Б",30.381414,59.936143
"430","190000, г.Санкт-Петербург, Нарвский проспект, д. 29, литера О",30.273092,59.902371
"431","191180, г.Санкт-Петербург, Бородинская улица, д. 1/88, литера А",30.3305848,59.9257682
"432","199178, г.Санкт-Петербург, 11-я линия В.О., д. 14/39, литера А",30.2771563,59.9381996
"433","198412, Санкт-Петербург, город Ломоносов, Еленинская улица, д. 22, литера А",29.7704669,59.9142409
"434","191119, г.Санкт-Петербург, Звенигородская улица, д. 28, литера А",30.342132,59.918229
"435","191186, г.Санкт-Петербург, Большая Морская улица, д. 7, литера А",30.317204,59.936797
"436","191186, г.Санкт-Петербург, Большая Морская улица, д. 7, литера А",30.317204,59.936797
"437","191186, г.Санкт-Петербург, Большая Морская улица, д. 7, литера А",30.317204,59.936797
"438","г.Санкт-Петербург, Новочеркасский проспект, д. 25, к. 1, литера А",30.40726,59.93535
"439","193036, г.Санкт-Петербург, Невский проспект, д. 148, литера А",30.3722027,59.9284957
"440","191011, г.Санкт-Петербург, Садовая улица, д. 12, литера А",30.3359891,59.9353528
"441","195009, г.Санкт-Петербург, улица Комсомола, д. 43, литера А",30.3541591,59.9556009
"442","191025, г.Санкт-Петербург, улица Маяковского, д. 4, литера А",30.35381,59.93287
"443","191186, г.Санкт-Петербург, Невский проспект, д. 20, литера А",30.3219437,59.9360843
"444","191186, г.Санкт-Петербург, Невский проспект, д. 20, литера А",30.3219437,59.9360843
"445","191025, г.Санкт-Петербург, улица Маяковского, д. 6, литера А",30.353911,59.93311
"446","196084, г.Санкт-Петербург, улица Глеба Успенского, д. 3, литера М",30.3178031,59.8874047
"447","191119, г.Санкт-Петербург, Лиговский проспект, д. 133, литера А",30.3517944,59.9177545
"448","193036, г.Санкт-Петербург, Невский проспект, д. 109, литера А",30.3698406,59.9289336
"449","191011, г.Санкт-Петербург, набережная канала Грибоедова, д. 18-20, литера А",30.3265138,59.9344937
"450","191011, г.Санкт-Петербург, набережная канала Грибоедова, д. 18-20, литера А",30.3265138,59.9344937
"451","191023, г.Санкт-Петербург, Садовая улица, д. 28-30, к. 28",30.3375562,59.9346057
"452","191011, г.Санкт-Петербург, Невский проспект, д. 60, литера А",30.3393286,59.9339952
"453","191025, г.Санкт-Петербург, улица Маяковского, д. 1/96, литера А",30.3542375,59.9324235
"454","191025, г.Санкт-Петербург, Невский проспект, д. 88, литера А",30.3519384,59.932425
"455","191025, г.Санкт-Петербург, Невский проспект, д. 88, литера А",30.3519384,59.932425
"456","191028, г.Санкт-Петербург, Литейный проспект, д. 33, литера А",30.347917,59.94104
"457","191186, г.Санкт-Петербург, набережная канала Грибоедова, д. 15, литера А",30.3262521,59.9366643
"458","191186, г.Санкт-Петербург, набережная канала Грибоедова, д. 15, литера А",30.3262521,59.9366643
"459","197198, г.Санкт-Петербург, Большой  проспект П.С., д. 38-40, литера А",30.29913,59.958776
"460","197101, г.Санкт-Петербург, Большая Зеленина улица, д. 3, литера А",30.2954457,59.9597307
"461","197022, г.Санкт-Петербург, улица Всеволода Вишневского, д. 18, литера А",30.3001077,59.9692194
"462","197046, г.Санкт-Петербург, Малая Посадская улица, д. 8, литера А",30.321453,59.95797
"463","190068, г.Санкт-Петербург, Лермонтовский проспект, д. 30, литера А",30.2970717,59.9179024
"464","190000, г.Санкт-Петербург, Галерная улица, д. 4, литера А",30.3007567,59.9351013
"465","193079, г.Санкт-Петербург, Народная улица, д. 16, литера А",30.464373,59.880968
"466","192029, г.Санкт-Петербург, проспект Обуховской Обороны, д. 75, литера А",30.425106,59.901607
"467","192289, г.Санкт-Петербург, Бухарестская улица, д. 142, к. 1, литера В",30.418829,59.834721
"468","198259, г.Санкт-Петербург, проспект Ветеранов, д. 160, литера А",30.144248,59.834982
"469","190031, г.Санкт-Петербург, Московский проспект, д. 2/6, литера А",30.3181831,59.9245421
"470","194156, г.Санкт-Петербург, Большой Сампсониевский проспект, д. 104, литера А",30.3312867,59.994452
"471","190068, г.Санкт-Петербург, набережная канала Грибоедова, д. 96, литера А",30.302064,59.926714
"472","г.Санкт-Петербург, проспект Стачек, д. 84, к. 1, литера А",30.259972,59.8708005
"473","191023, г.Санкт-Петербург, Гороховая улица, д. 32, литера А",30.320883,59.929771
"474","191028, г.Санкт-Петербург, Кирочная улица, д. 8, литера А",30.3532207,59.9441184
"475","190068, г.Санкт-Петербург, Садовая улица, д. 112-114, литера А",30.2865496,59.9176617
"476","197198, г.Санкт-Петербург, Большой  проспект П.С., д. 14, литера А",30.292807,59.954535
"477","197101, г.Санкт-Петербург, Большой  проспект П.С., д. 61/3, литера А",30.2918515,59.9530768
"478","191186, г.Санкт-Петербург, Большая Морская улица, д. 6, литера А",30.317968,59.937222
"479","191002, г.Санкт-Петербург, улица Рубинштейна, д. 23, литера А",30.342029,59.9278749
"480","191040, г.Санкт-Петербург, Лиговский проспект, д. 63, литера А",30.358167,59.927538
"481","191002, г.Санкт-Петербург, улица Рубинштейна, д. 12, литера А",30.344587,59.9289782
"482","191023, г.Санкт-Петербург, Садовая улица, д. 28-30, к. 18-19",30.3375562,59.9346057
"483","191186, г.Санкт-Петербург, Малая Морская улица, д. 8, литера А",30.3135297,59.9356341
"484","193036, г.Санкт-Петербург, Гончарная улица, д. 13, литера А",30.3655161,59.929278
"485","191186, г.Санкт-Петербург, Гороховая улица, д. 8/13, литера А",30.3118592,59.9355856
"486","191186, г.Санкт-Петербург, Большая Морская улица, д. 11, литера А",30.316585,59.935747
"487","193024, г.Санкт-Петербург, Невский проспект, д. 113/4, литера А",30.3140903,59.9369444
"488","193024, г.Санкт-Петербург, Невский проспект, д. 115, литера А",30.373039,59.927725
"489","192177, г.Санкт-Петербург, Скачков переулок, д. 3, литера А",30.507097,59.831535
"490","191186, г.Санкт-Петербург, набережная реки Мойки, д. 18, литера Б",30.3200426,59.9404882
"491","191104, г.Санкт-Петербург, Литейный проспект, д. 36, литера А",30.3486526,59.9394207
"492","191014, г.Санкт-Петербург, Кирочная улица, д. 17, литера А",30.3545112,59.9439425
"493","196105, г.Санкт-Петербург, улица Решетникова, д. 12, литера И",30.323795,59.879139
"494","г.Санкт-Петербург, проспект Стачек, д. 105, к. 1, литера Г",30.24062,59.855268
"495","196066, г.Санкт-Петербург, улица Гастелло, д. 9, литера А",30.3236374,59.8574297
"496","196600, Санкт-Петербург, город Пушкин, Леонтьевская улица, д. 36а, литера А",30.4061377,59.7223307
"497","191186, г.Санкт-Петербург, Миллионная улица, д. 11, литера А",30.3247901,59.944107
"498","191186, г.Санкт-Петербург, Миллионная улица, д. 11, литера А",30.3247901,59.944107
"499","г.Санкт-Петербург, Дачный проспект, д. 9, к. 1, литера А",30.2443568,59.8466129
"500","191040, г.Санкт-Петербург, Лиговский проспект, д. 56, литера А",30.357466,59.924388
"501","191040, г.Санкт-Петербург, Лиговский проспект, д. 56, литера А",30.357466,59.924388
"502","191119, г.Санкт-Петербург, улица Черняховского, д. 17, литера Б",30.358616,59.916835
"503","г.Санкт-Петербург, Невский проспект, д. 168, литера А",30.3780296,59.9264022
"504","197136, г.Санкт-Петербург, Большой  проспект П.С., д. 74, литера А",30.307451,59.963131
"505","190031, г.Санкт-Петербург, Садовая улица, д. 42, литера А",30.3161496,59.925716
"506","191023, г.Санкт-Петербург, Садовая улица, д. 32/1, литера А",30.323797,59.92906
"507","193171, г.Санкт-Петербург, проспект Обуховской Обороны, д. 145, литера А",30.4433652,59.8844663
"508","192029, г.Санкт-Петербург, улица Ольминского, д. 2/83, литера А",30.4266601,59.9005994
"509","191126, г.Санкт-Петербург, улица Правды, д. 12/12, литера А",30.3424675,59.9232235
"510","190031, г.Санкт-Петербург, Московский проспект, д. 4, литера А",30.3181401,59.9254778
"511","198097, г.Санкт-Петербург, проспект Стачек, д. 34, к. 1, литера А",30.2697822,59.8880797
"512","193012, г.Санкт-Петербург, проспект Обуховской Обороны, д. 219, литера А",30.4667051,59.8663134
"513","192174, г.Санкт-Петербург, проспект Александровской Фермы, д. 66а, литера А",30.451306,59.85951
"514","190031, г.Санкт-Петербург, Сенная площадь, д. 13, литера А",30.316034,59.926843
"515","191025, г.Санкт-Петербург, набережная реки Фонтанки, д. 38, литера А",30.344614,59.934153
"516","191180, г.Санкт-Петербург, Гороховая улица, д. 58, литера А",30.3298132,59.9234687
"517","196084, г.Санкт-Петербург, Московский проспект, д. 93, литера Б",30.318731,59.89516
"518","196084, г.Санкт-Петербург, Московский проспект, д. 93, литера Б",30.318731,59.89516
"519","191011, г.Санкт-Петербург, Думская улица, д. 1-3, литера А",30.328878,59.934162
"520","191011, г.Санкт-Петербург, Думская улица, д. 1-3, литера А",30.328878,59.934162
"521","191011, г.Санкт-Петербург, Думская улица, д. 1-3, литера А",30.328878,59.934162
"522","196084, г.Санкт-Петербург, Московский проспект, д. 117, литера А",30.318881,59.888052
"523","191011, г.Санкт-Петербург, Невский проспект, д. 44, литера А",30.333041,59.934795
"524","190031, г.Санкт-Петербург, Московский проспект, д. 10-12, литера А",30.318663,59.9238
"525","191023, г.Санкт-Петербург, Мучной переулок, д. 2, литера Г",30.3233392,59.9300065
"526","191023, г.Санкт-Петербург, Мучной переулок, д. 2, литера Г",30.3233392,59.9300065
"527","191011, г.Санкт-Петербург, набережная канала Грибоедова, д. 28/1, литера А",30.3258119,59.9326038
"528","191011, г.Санкт-Петербург, Невский проспект, д. 32-34, литера А",30.328303,59.935387
"529","191011, г.Санкт-Петербург, Невский проспект, д. 62, литера А",30.339699,59.933958
"530","191011, г.Санкт-Петербург, Невский проспект, д. 62, литера А",30.339699,59.933958
"531","г.Санкт-Петербург, улица Маршала Захарова, д. 16, к. 1, литера А",30.16751,59.858063
"532","г.Санкт-Петербург, улица Маршала Захарова, д. 16, к. 1, литера А",30.16751,59.858063
"533","192071, г.Санкт-Петербург, Бухарестская улица, д. 31, к. 1, литера А",30.384408,59.865804
"534","198020, г.Санкт-Петербург, Нарвский проспект, д. 15, литера А",30.273488,59.903961
"535","199053, г.Санкт-Петербург, Волховский переулок, д. 6, литера А,",30.2902004,59.9448338
"536","197022, г.Санкт-Петербург, Большой  проспект П.С., д. 98, литера А",30.312646,59.966465
"537","196135, г.Санкт-Петербург, Московский проспект, д. 200, литера А",30.321546,59.860363
"538","197198, г.Санкт-Петербург, Гатчинская улица, д. 16, литера А",30.2997069,59.9617633
"539","190121, г.Санкт-Петербург, Садовая улица, д. 91, литера А",30.291351,59.919167
"540","194362, Санкт-Петербург, поселок Парголово, Выборгское шоссе, д. 372, литера Б",30.2571399,60.0927276
"541","191011, г.Санкт-Петербург, Садовая улица, д. 7-9-11, литера А",30.335322,59.935337
"542","190000, г.Санкт-Петербург, набережная реки Фонтанки, д. 135, литера А",30.303533,59.918976
"543","195112, г.Санкт-Петербург, Новочеркасский проспект, д. 41/14, литера А",30.4103752,59.9292464
"544","191104, г.Санкт-Петербург, Литейный проспект, д. 44, литера Г",30.3485091,59.9378707
"545","196158, г.Санкт-Петербург, проспект Юрия Гагарина, д. 42, литера А",30.339695,59.84071
"546","191023, г.Санкт-Петербург, Невский проспект, д. 28, литера А",30.3361967,59.934093
"547","197760, Санкт-Петербург, город Кронштадт, Кронштадтское шоссе, д. 31, литера Б",29.696462,60.0208538
"548","191011, г.Санкт-Петербург, набережная реки Фонтанки, д. 29/66, литера А",30.3372723,59.928497
"549","191011, г.Санкт-Петербург, набережная реки Фонтанки, д. 29/66, литера А",30.3372723,59.928497
"550","193167, г.Санкт-Петербург, Синопская набережная, д. 30, литера Н",30.3883224,59.9306291
"551","Санкт-Петербург, город Петергоф, Санкт-Петербургский проспект, д. 8/9а, литера Б",29.9227702,59.8779109
"552","192029, г.Санкт-Петербург, проспект Обуховской Обороны, д. 127, литера А",30.4305172,59.8986925
"553","191104, г.Санкт-Петербург, Литейный проспект, д. 53, литера А",30.347621,59.936304
"554","191186, г.Санкт-Петербург, Невский проспект, д. 13/9, литера А",30.316909,59.9363146
"555","190031, г.Санкт-Петербург, Спасский переулок, д. 11/1, литера А",30.3185844,59.9282075
"556","190031, г.Санкт-Петербург, Гороховая улица, д. 39, литера А",30.3205864,59.9291796
"557","197022, г.Санкт-Петербург, Чкаловский проспект, д. 60, литера Д",30.3043184,59.9694546
"558","190000, г.Санкт-Петербург, набережная канала Грибоедова, д. 81, литера А",30.3069373,59.9267873
"559","195030, г.Санкт-Петербург, 3-я Жерновская улица, д. 23, литера Б",30.4856597,59.9624919
"560","Санкт-Петербург, город Петергоф, Эрлеровский  бульвар, д. 12/2, литера Б",29.91381,59.871995
"561","192029, г.Санкт-Петербург, проспект Обуховской Обороны, д. 75а, литера В",30.424877,59.901166
"562","192171, г.Санкт-Петербург, проспект Обуховской Обороны, д. 149, литера Ф",30.4435732,59.8838011
"563","192171, г.Санкт-Петербург, проспект Обуховской Обороны, д. 149, литера Ч",30.4435732,59.8838011
"564","195248, г.Санкт-Петербург, проспект Энергетиков, д. 29, литера А",30.439143,59.955344
"565","195248, г.Санкт-Петербург, проспект Энергетиков, д. 29, литера А",30.439143,59.955344
"566","196084, г.Санкт-Петербург, Московский проспект, д. 81, литера А",30.318281,59.898035
"567","199053, г.Санкт-Петербург, 3-я линия В.О., д. 8, литера А",30.286713,59.941594
"568","191119, г.Санкт-Петербург, улица Константина Заслонова, д. 18, литера А",30.347224,59.918645
"569","199226, г.Санкт-Петербург, Наличная улица, д. 34, литера Б",30.228943,59.944892
"570","196105, г.Санкт-Петербург, Московский проспект, д. 182, литера А",30.320938,59.8751203
"571","198096, г.Санкт-Петербург, проспект Стачек, д. 94, литера А",30.2615145,59.8667955
"572","199053, г.Санкт-Петербург, Средний проспект В.О., д. 2, литера Д",30.2836746,59.944592
"573","197110, г.Санкт-Петербург, Большая Зеленина улица, д. 43, литера В",30.2824095,59.9669451
"574","199048, г.Санкт-Петербург, 19-я линия В.О., д. 26, литера А",30.260168,59.940251
"575","197198, г.Санкт-Петербург, Большой  проспект П.С., д. 31, литера А",30.3009823,59.958768
"576","191011, г.Санкт-Петербург, Невский проспект, д. 40-42, литера А",30.332383,59.934887
"577","191126, г.Санкт-Петербург, Загородный проспект, д. 40, литера А",30.3367082,59.9237371
"578","191002, г.Санкт-Петербург, Загородный проспект, д. 15, литера А",30.3408872,59.9256764
"579","191002, г.Санкт-Петербург, Разъезжая улица, д. 1, литера А",30.342559,59.925828
"580","195257, г.Санкт-Петербург, проспект Науки, д. 10, к. 1, литера А",30.391088,60.01511
"581","192007, г.Санкт-Петербург, Лиговский проспект, д. 172, литера А",30.3486153,59.9113128
"582","196620, Санкт-Петербург, город Павловск, Конюшенная улица, д. 25, литера А",30.4375993,59.6831994
"583","191023, г.Санкт-Петербург, набережная реки Фонтанки, д. 67-69, литера А",30.3303685,59.9270039
"584","191186, г.Санкт-Петербург, Невский проспект, д. 20, литера А",30.3219437,59.9360843
"585","195009, г.Санкт-Петербург, улица Комсомола, д. 15, литера А",30.3663389,59.9550175
"586","193167, г.Санкт-Петербург, Невский проспект, д. 172/1, литера А",30.3790777,59.9261393
"587","193167, г.Санкт-Петербург, Невский проспект, д. 151, литера А",30.3792994,59.9254672
"588","193024, г.Санкт-Петербург, Херсонская улица, д. 19, литера А",30.379394,59.928681
"589","193036, г.Санкт-Петербург, Невский проспект, д. 140, литера А",30.368741,59.929787
"590","191014, г.Санкт-Петербург, улица Жуковского, д. 28, литера А",30.359885,59.936102
"591","191002, г.Санкт-Петербург, улица Рубинштейна, д. 6, литера А",30.344587,59.9289782
"592","191014, г.Санкт-Петербург, улица Маяковского, д. 11, литера А",30.355134,59.9371163
"593","192241, г.Санкт-Петербург, Пражская улица, д. 35, литера А",30.39921,59.864247
"594","193036, г.Санкт-Петербург, Невский проспект, д. 109, литера А",30.3698406,59.9289336
"595","191025, г.Санкт-Петербург, Литейный проспект, д. 64/78, литера А",30.348357,59.93317
"596","191025, г.Санкт-Петербург, улица Маяковского, д. 1/96, литера А",30.3542375,59.9324235
"597","191025, г.Санкт-Петербург, Невский проспект, д. 88, литера А",30.3519384,59.932425
"598","197198, г.Санкт-Петербург, Шамшева улица, д. 5/50, литера А",30.3016525,59.9601604
"599","195196, г.Санкт-Петербург, Новочеркасский проспект, д. 43/17, литера А",30.41211,59.92803
"600","191002, г.Санкт-Петербург, Загородный проспект, д. 12, литера А",30.3443745,59.9267644
"601","190068, г.Санкт-Петербург, Садовая улица, д. 66, литера А",30.2978166,59.9201619
"602","190068, г.Санкт-Петербург, улица Декабристов, д. 36/1, литера А",30.2924758,59.9254884
"603","190068, г.Санкт-Петербург, Садовая улица, д. 103, литера А",30.3068205,59.922356
"604","190000, г.Санкт-Петербург, Гороховая улица, д. 17/56, литера А",30.329402,59.9238468
"605","190000, г.Санкт-Петербург, Большая Морская улица, д. 34, литера А",30.3120554,59.9334041
"606","190000, г.Санкт-Петербург, Казанская улица, д. 56, литера А",30.306985,59.927643
"607","198013, г.Санкт-Петербург, Бронницкая улица, д. 2/70, литера А",30.3201368,59.917056
"608","191180, г.Санкт-Петербург, Гороховая улица, д. 67, литера А",30.329616,59.923051
"609","190000, г.Санкт-Петербург, Большая Морская улица, д. 31, литера А",30.31139,59.933651
"610","193029, г.Санкт-Петербург, проспект Обуховской Обороны, д. 97, литера А",30.4324511,59.897115
"611","193029, г.Санкт-Петербург, проспект Обуховской Обороны, д. 97, литера А",30.4324511,59.897115
"612","192029, г.Санкт-Петербург, улица Крупской, д. 13, литера А",30.433336,59.890667
"613","192029, г.Санкт-Петербург, улица Ткачей, д. 4, литера А",30.434369,59.894073
"614","193131, г.Санкт-Петербург, Ивановская улица, д. 24, литера А",30.441456,59.87261
"615","193029, г.Санкт-Петербург, проспект Обуховской Обороны, д. 107, литера Б",30.4366657,59.8945219
"616","193171, г.Санкт-Петербург, улица Полярников, д. 8, литера А",30.436946,59.876638
"617","193036, г.Санкт-Петербург, Невский проспект, д. 91, литера Б",30.365253,59.930317
"618","191028, г.Санкт-Петербург, Кирочная улица, д. 8, литера И",30.3532207,59.9441184
"619","193124, г.Санкт-Петербург, Новгородская улица, д. 25, литера А",30.391763,59.941855
"620","191014, г.Санкт-Петербург, Саперный переулок, д. 10, литера А",30.3581014,59.9411437
"621","191186, г.Санкт-Петербург, Малая Конюшенная улица, д. 14, литера А",30.3253693,59.9362704
"622","191023, г.Санкт-Петербург, Садовая улица, д. 28-30, к. 17",30.3265151,59.9298431
"623","190068, г.Санкт-Петербург, Вознесенский проспект, д. 45, литера А",30.307804,59.922434
"624","192286, г.Санкт-Петербург, Альпийский переулок, д. 30, литера А",30.3874004,59.8543826
"625","192286, г.Санкт-Петербург, Альпийский переулок, д. 30, литера А",30.3874004,59.8543826
"626","192007, г.Санкт-Петербург, Лиговский проспект, д. 161, литера А",30.34893,59.91395
"627","191023, г.Санкт-Петербург, Садовая улица, д. 28-30, к. 1",30.3265151,59.9298431
"628","191023, г.Санкт-Петербург, Садовая улица, д. 28-30, к. 18-19",30.3375562,59.9346057
"629","191023, г.Санкт-Петербург, Садовая улица, д. 28-30, к. 18-19",30.3375562,59.9346057
"630","191028, г.Санкт-Петербург, Литейный проспект, д. 24, литера А",30.348903,59.942496
"631","191186, г.Санкт-Петербург, Гороховая улица, д. 8/13, литера А",30.3118592,59.9355856
"632","191023, г.Санкт-Петербург, Гороховая улица, д. 40, литера А",30.3240681,59.9272581
"633","191028, г.Санкт-Петербург, Литейный проспект, д. 25, литера А",30.348017,59.942289
"634","191014, г.Санкт-Петербург, Литейный проспект, д. 45/8, литера А",30.347828,59.938632
"635","191186, г.Санкт-Петербург, Невский проспект, д. 18, литера А",30.3185953,59.9364647
"636","191186, г.Санкт-Петербург, Невский проспект, д. 18, литера А",30.3185953,59.9364647
"637","191104, г.Санкт-Петербург, Литейный проспект, д. 36, литера А",30.3486526,59.9394207
"638","196600, Санкт-Петербург, город Пушкин, Средняя улица, д. 1-3/8, литера А",30.399704,59.718583
"639","196600, Санкт-Петербург, город Пушкин, Средняя улица, д. 1-3/8, литера А",30.399704,59.718583
"640","194356, г.Санкт-Петербург, улица Есенина, д. 22, к. 1, литера А",30.336631,60.046003
"641","191186, г.Санкт-Петербург, Миллионная улица, д. 11, литера А",30.3247901,59.944107
"642","196600, Санкт-Петербург, город Пушкин, Кадетский бульвар, д. 24, литера А",30.407333,59.7043916
"643","191040, г.Санкт-Петербург, Лиговский проспект, д. 56, литера А",30.357466,59.924388
"644","191040, г.Санкт-Петербург, Лиговский проспект, д. 56, литера А",30.357466,59.924388
"645","196158, г.Санкт-Петербург, Пулковская улица, д. 11, литера А",30.348702,59.838294
"646","198095, г.Санкт-Петербург, улица Трефолева, д. 22/25, литера А",30.269822,59.890659
"647","191186, г.Санкт-Петербург, Невский проспект, д. 22-24, литера А",30.3242128,59.9358955
"648","191186, г.Санкт-Петербург, Невский проспект, д. 22-24, литера А",30.3242128,59.9358955
"649","191023, г.Санкт-Петербург, Садовая улица, д. 32/1, литера А",30.323797,59.92906
"650","191023, г.Санкт-Петербург, Садовая улица, д. 32/1, литера А",30.323797,59.92906
"651","196650, Санкт-Петербург, город Колпино, улица Тазаева, д. 10а, литера А",30.605441,59.741724
"652","191180, г.Санкт-Петербург, Гороховая улица, д. 52, литера А",30.3286821,59.9242201
"653","196084, г.Санкт-Петербург, Московский проспект, д. 127, литера А",30.318283,59.886167
"654","190031, г.Санкт-Петербург, улица Ефимова, д. 6, литера А",30.323105,59.924667
"655","193036, г.Санкт-Петербург, Лиговский проспект, д. 29, литера А",30.362009,59.933622
"656","193036, г.Санкт-Петербург, Лиговский проспект, д. 29, литера А",30.362009,59.933622
"657","190031, г.Санкт-Петербург, Московский проспект, д. 1/2, литера А",30.3178645,59.9258716
"658","г.Санкт-Петербург, проспект Стачек, д. 75, литера А",30.259362,59.867189
"659","193015, г.Санкт-Петербург, Кирочная улица, д. 45, литера А",30.3788622,59.9428705
"660","190031, г.Санкт-Петербург, Сенная площадь, д. 13, литера А",30.316034,59.926843
"661","191025, г.Санкт-Петербург, набережная реки Фонтанки, д. 38, литера А",30.344614,59.934153
"662","197101, г.Санкт-Петербург, Большой  проспект П.С., д. 49/18, литера А",30.3055979,59.961569
"663","190031, г.Санкт-Петербург, Столярный переулок, д. 18/69, литера А",30.313318,59.9263879
"664","191028, г.Санкт-Петербург, Кирочная улица, д. 20, литера А",30.356172,59.944151
"665","196642, Санкт-Петербург, поселок Петро-Славянка, улица Коммунаров, д. 4, литера А",30.511121,59.802742
"666","191011, г.Санкт-Петербург, Невский проспект, д. 44, литера А",30.333041,59.934795
"667","191011, г.Санкт-Петербург, Невский проспект, д. 44, литера А",30.333041,59.934795
"668","191011, г.Санкт-Петербург, набережная канала Грибоедова, д. 28/1, литера А",30.3258119,59.9326038
"669","191011, г.Санкт-Петербург, Невский проспект, д. 32-34, литера А",30.328303,59.935387
"670","190031, г.Санкт-Петербург, Садовая улица, д. 48, литера А",30.3138241,59.9248377
"671","193167, г.Санкт-Петербург, Невский проспект, д. 184, литера А",30.384034,59.92438
"672","199161, г.Санкт-Петербург, Малый проспект В.О., д. 9, литера А",30.276708,59.948178
"673","199178, г.Санкт-Петербург, 13-я линия В.О., д. 30, литера А",30.271969,59.939647
"674","199026, г.Санкт-Петербург, Большой проспект В.О., д. 62, литера В",30.259021,59.9321413
"675","199053, г.Санкт-Петербург, 4-я линия В.О., д. 35-37, литера А",30.279937,59.9452108
"676","199034, г.Санкт-Петербург, Академический переулок, д. 8, литера А",30.2865927,59.9373176
"677","199178, г.Санкт-Петербург, 11-я линия В.О., д. 34/47, литера А",30.2728815,59.9418948
"678","190000, г.Санкт-Петербург, Галерная улица, д. 9, литера А",30.2984632,59.9346812
"679","193029, г.Санкт-Петербург, проспект Обуховской Обороны, д. 89, литера Б",30.428992,59.899229
"680","196600, Санкт-Петербург, город Пушкин, Средняя улица, д. 2/3, литера А",30.396574,59.719585
"681","195030, г.Санкт-Петербург, Белорусская улица, д. 6, к. 2, литера А",30.499274,59.936618
"682","193167, г.Санкт-Петербург, улица Александра Невского, д. 8, литера П",30.383949,59.926268
"683","190068, г.Санкт-Петербург, Садовая улица, д. 77, литера А",30.2942702,59.9195837
"684","199053, г.Санкт-Петербург, 1-я линия В.О., д. 28, литера А",30.2884,59.943003
"685","196066, г.Санкт-Петербург, Московский проспект, д. 206, литера А",30.3216493,59.8573271
"686","197706, Санкт-Петербург, город Сестрорецк, набережная реки Сестры, д. 44, литера А",29.9638006,60.1065399
"687","196233, г.Санкт-Петербург, Звездная улица, д. 16а, литера А",30.3658462,59.835704
"688","196105, г.Санкт-Петербург, Московский проспект, д. 186, литера А",30.3207532,59.8727751
"689","196105, г.Санкт-Петербург, Московский проспект, д. 186, литера А",30.3207532,59.8727751
"690","193024, г.Санкт-Петербург, Невский проспект, д. 119, литера А",30.373574,59.927251
"691","191119, г.Санкт-Петербург, Лиговский проспект, д. 101, литера А",30.354658,59.922418
"692","191023, г.Санкт-Петербург, Невский проспект, д. 28, литера А",30.3361967,59.934093
"693","191023, г.Санкт-Петербург, Невский проспект, д. 28, литера А",30.3361967,59.934093
"694","191023, г.Санкт-Петербург, Невский проспект, д. 28, литера А",30.3361967,59.934093
"695","191123, г.Санкт-Петербург, Манежный переулок, д. 7, литера А",30.355789,59.943063
"696","191011, г.Санкт-Петербург, набережная реки Фонтанки, д. 29/66, литера А",30.3372723,59.928497
"697","г.Санкт-Петербург, улица Маршала Захарова, д. 12, к. 1, литера А",30.159196,59.8597857
"698","196084, г.Санкт-Петербург, Московский проспект, д. 75, литера А",30.3184825,59.9034426
"699","196084, г.Санкт-Петербург, Московский проспект, д. 64, литера А",30.3188403,59.9078617
"700","196066, г.Санкт-Петербург, Московский проспект, д. 216, литера А",30.322209,59.848739
"701","197046, г.Санкт-Петербург, улица Чапаева, д. 11/4, литера А",30.3318603,59.9600209
"702","192029, г.Санкт-Петербург, проспект Обуховской Обороны, д. 127, литера А",30.4305172,59.8986925
"703","191028, г.Санкт-Петербург, Моховая улица, д. 27-29, литера А",30.3449937,59.9420184
"704","191002, г.Санкт-Петербург, Загородный проспект, д. 13, литера А",30.3417502,59.9261079
"705","190068, г.Санкт-Петербург, набережная канала Грибоедова, д. 119-121, литера А",30.3028776,59.9239398
"706","г.Санкт-Петербург, Ленинский проспект, д. 57, к. 1, литера А",30.1757617,59.8616705
"707","190000, г.Санкт-Петербург, Почтамтская улица, д. 1, литера А",30.3044812,59.9330173
"708","191002, г.Санкт-Петербург, Загородный проспект, д. 28, литера А",30.3401802,59.9251445
"709","191002, г.Санкт-Петербург, Загородный проспект, д. 28, литера А",30.3401802,59.9251445
"710","192286, г.Санкт-Петербург, проспект Славы, д. 43/49, литера А",30.392035,59.85849
"711","191002, г.Санкт-Петербург, Разъезжая улица, д. 9, литера А",30.344106,59.925188
"712","192029, г.Санкт-Петербург, проспект Обуховской Обороны, д. 75а, литера Б",30.424877,59.901166
"713","199026, г.Санкт-Петербург, 20-я линия В.О., д. 9, литера К",30.267551,59.932655
"714","195253, г.Санкт-Петербург, улица Маршала Тухачевского, д. 41, литера А",30.4308368,59.9602639
"715","197183, г.Санкт-Петербург, улица Савушкина, д. 10, литера А",30.2976111,59.9860374
"716","Санкт-Петербург, поселок Стрельна, Санкт-Петербургское шоссе, д. 78, литера А",30.0383551,59.8524153
"717","198095, г.Санкт-Петербург, улица Ивана Черных, д. 5, литера Р",30.277126,59.899733
"718","198095, г.Санкт-Петербург, улица Ивана Черных, д. 5, литера Р",30.277126,59.899733
"719","Санкт-Петербург, город Петергоф, Константиновская улица, д. 16, литера Ж",29.916855,59.875019
"720","198510, Санкт-Петербург, город Петергоф, Константиновская улица, д. 16, литера А",29.916855,59.875019
"721","191186, г.Санкт-Петербург, Большая Морская улица, д. 7, литера А",30.317204,59.936797
"722","197101, г.Санкт-Петербург, Большой  проспект П.С., д. 51/9, литера А",30.2937163,59.9542831
"723","191011, г.Санкт-Петербург, Садовая улица, д. 12, литера А",30.3359891,59.9353528
"724","191186, г.Санкт-Петербург, Большая Морская улица, д. 17, литера А",30.31489,59.934952
"725","195274, г.Санкт-Петербург, проспект Культуры, д. 21, к. 1, литера А",30.377403,60.045972
"726","191040, г.Санкт-Петербург, Лиговский проспект, д. 89/20, литера А",30.3558722,59.9238552
"727","191002, г.Санкт-Петербург, Загородный проспект, д. 21-23, литера А",30.3372431,59.9254715
"728","191025, г.Санкт-Петербург, улица Маяковского, д. 2/94, литера А",30.353661,59.93244
"729","191025, г.Санкт-Петербург, улица Маяковского, д. 4, литера А",30.35381,59.93287
"730","191002, г.Санкт-Петербург, улица Рубинштейна, д. 28, литера Б",30.3447962,59.9290171
"731","191126, г.Санкт-Петербург, улица Марата, д. 75, литера А",30.3417792,59.9206978
"732","191119, г.Санкт-Петербург, Боровая улица, д. 10, литера А",30.3487744,59.9214194
"733","191186, г.Санкт-Петербург, Невский проспект, д. 20, литера А",30.3219437,59.9360843
"734","193167, г.Санкт-Петербург, Невский проспект, д. 153, литера А",30.3801793,59.9250952
"735","191014, г.Санкт-Петербург, Лиговский проспект, д. 106, литера А",30.3644854,59.9368643
"736","191186, г.Санкт-Петербург, Большая Морская улица, д. 10, литера Б",30.317952,59.936859
"737","191014, г.Санкт-Петербург, улица Маяковского, д. 37, литера Ю",30.355429,59.9418442
"738","196084, г.Санкт-Петербург, Московский проспект, д. 102, литера А",30.31975,59.8961769
"739","192007, г.Санкт-Петербург, Лиговский проспект, д. 146, литера А",30.3498072,59.9133118
"740","193036, г.Санкт-Петербург, Невский проспект, д. 109, литера А",30.3698406,59.9289336
"741","191011, г.Санкт-Петербург, набережная канала Грибоедова, д. 18-20, литера А",30.3265138,59.9344937
"742","191023, г.Санкт-Петербург, Садовая улица, д. 28-30, к. 28",30.3375562,59.9346057
"743","191023, г.Санкт-Петербург, Садовая улица, д. 28-30, к. 20",30.3375562,59.9346057
"744","191023, г.Санкт-Петербург, Садовая улица, д. 28-30, к. 20",30.3375562,59.9346057
"745","г.Санкт-Петербург, Садовая улица, д. 28-30, к. 26",30.3291386,59.9313147
"746","191023, г.Санкт-Петербург, Садовая улица, д. 28-30, к. 41",30.3375562,59.9346057
"747","191025, г.Санкт-Петербург, Литейный проспект, д. 64/78, литера А",30.348357,59.93317
"748","191025, г.Санкт-Петербург, Литейный проспект, д. 64/78, литера А",30.348357,59.93317
"749","193024, г.Санкт-Петербург, проспект Бакунина, д. 19-25, литера Т",30.3818156,59.9304561
"750","197136, г.Санкт-Петербург, Большой  проспект П.С., д. 80, литера А",30.3085343,59.9640411
"751","197198, г.Санкт-Петербург, Ижорская улица, д. 13/39, литера А",30.297086,59.959407
"752","197198, г.Санкт-Петербург, Гатчинская улица, д. 2/54, литера А",30.3025548,59.9606112
"753","196650, Санкт-Петербург, город Колпино, площадь Коммуны, д. 7, литера А",30.591966,59.745634
"754","190068, г.Санкт-Петербург, Садовая улица, д. 66, литера А",30.2978166,59.9201619
"755","190031, г.Санкт-Петербург, переулок Гривцова, д. 9, литера А",30.31474,59.929204
"756","191028, г.Санкт-Петербург, набережная реки Фонтанки, д. 30, литера А",30.3436282,59.9386456
"757","190068, г.Санкт-Петербург, Английский проспект, д. 43, литера А",30.2894407,59.9177304
"758","190000, г.Санкт-Петербург, Гороховая улица, д. 1, литера А",30.310072,59.93617
"759","198020, г.Санкт-Петербург, Старо-Петергофский проспект, д. 3-5, литера А",30.278277,59.91529
"760","190000, г.Санкт-Петербург, Московский проспект, д. 73, литера А",30.3179136,59.904944
"761","193029, г.Санкт-Петербург, проспект Обуховской Обороны, д. 88, литера А",30.4390122,59.8932243
"762","192289, г.Санкт-Петербург, Малая Балканская улица, д. 58, литера А",30.426146,59.830446
"763","192212, г.Санкт-Петербург, Белградская улица, д. 30, литера А",30.3659422,59.857314
"764","194100, г.Санкт-Петербург, Новолитовская улица, д. 11, литера А",30.3519441,59.9801723
"765","191040, г.Санкт-Петербург, Лиговский проспект, д. 44, литера Б",30.3584758,59.9260345
"766","190068, г.Санкт-Петербург, набережная канала Грибоедова, д. 109/8, литера А",30.300421,59.925301
"767","191023, г.Санкт-Петербург, Гороховая улица, д. 32, литера А",30.320883,59.929771
"768","192286, г.Санкт-Петербург, Альпийский переулок, д. 30, литера А",30.3874004,59.8543826
"769","197198, г.Санкт-Петербург, Большой  проспект П.С., д. 14, литера А",30.292807,59.954535
"770","191119, г.Санкт-Петербург, Лиговский проспект, д. 88, литера Г, Сооружение 1",NA,NA
"771","193036, г.Санкт-Петербург, переулок Ульяны Громовой, д. 8, литера Б",30.362207,59.934328
"772","190068, г.Санкт-Петербург, Садовая улица, д. 125, литера А",30.3068205,59.922356
"773","191011, г.Санкт-Петербург, Инженерная улица, д. 6, литера А",30.337036,59.937667
"774","191186, г.Санкт-Петербург, Невский проспект, д. 18, литера А",30.3185953,59.9364647
"775","191040, г.Санкт-Петербург, Лиговский проспект, д. 67/22, литера А",30.357723,59.926849
"776","197110, г.Санкт-Петербург, Большая Зеленина улица, д. 14/18, литера А",30.2909179,59.9616713
"777","191014, г.Санкт-Петербург, Кирочная улица, д. 17, литера А",30.3545112,59.9439425
"778","191014, г.Санкт-Петербург, Кирочная улица, д. 17, литера А",30.3545112,59.9439425
"779","191014, г.Санкт-Петербург, Кирочная улица, д. 17, литера А",30.3545112,59.9439425
"780","г.Санкт-Петербург, проспект Энгельса, д. 133, к. 1, литера Е",30.334208,60.049098
"781","190031, г.Санкт-Петербург, Московский проспект, д. 7, литера А",30.3170674,59.924766
"782","г.Санкт-Петербург, проспект Стачек, д. 55, литера А",30.2552733,59.8767283
"783","196066, г.Санкт-Петербург, улица Гастелло, д. 9, литера А",30.3236374,59.8574297
"784","191126, г.Санкт-Петербург, Звенигородская улица, д. 8-10, литера К",30.33767,59.921684
"785","194356, г.Санкт-Петербург, улица Есенина, д. 22, к. 1, литера А",30.336631,60.046003
"786","г.Санкт-Петербург, Дачный проспект, д. 9, к. 1, литера А",30.2443568,59.8466129
"787","г.Санкт-Петербург, Дачный проспект, д. 9, к. 1, литера А",30.2443568,59.8466129
"788","191023, г.Санкт-Петербург, Садовая улица, д. 28-30, к. 3",30.3265151,59.9298431
"789","191040, г.Санкт-Петербург, Лиговский проспект, д. 56, литера А",30.357466,59.924388
"790","191040, г.Санкт-Петербург, Лиговский проспект, д. 56, литера А",30.357466,59.924388
"791","196066, г.Санкт-Петербург, Московский проспект, д. 189, литера А",30.3205002,59.8544462
"792","196158, г.Санкт-Петербург, Пулковская улица, д. 11, литера А",30.348702,59.838294
"793","191186, г.Санкт-Петербург, Невский проспект, д. 22-24, литера А",30.3242128,59.9358955
"794","191186, г.Санкт-Петербург, Невский проспект, д. 22-24, литера А",30.3242128,59.9358955
"795","191104, г.Санкт-Петербург, улица Маяковского, д. 16, литера А",30.354576,59.936218
"796","196070, г.Санкт-Петербург, Московский проспект, д. 179, литера А",30.320312,59.85876
"797","197136, г.Санкт-Петербург, Большой  проспект П.С., д. 74, литера А",30.307451,59.963131
"798","190031, г.Санкт-Петербург, Садовая улица, д. 42, литера А",30.3161496,59.925716
"799","191014, г.Санкт-Петербург, улица Маяковского, д. 34, литера А",30.354875,59.939882
"800","191119, г.Санкт-Петербург, Лиговский проспект, д. 135, литера А",30.351441,59.917531
"801","193171, г.Санкт-Петербург, проспект Обуховской Обороны, д. 145, литера А",30.4433652,59.8844663
"802","193036, г.Санкт-Петербург, Лиговский проспект, д. 29, литера А",30.362009,59.933622
"803","198005, г.Санкт-Петербург, Измайловский проспект, д. 31, литера А",30.3069585,59.9095129
"804","191025, г.Санкт-Петербург, улица Марата, д. 25, литера А",30.352408,59.927506
"805","196084, г.Санкт-Петербург, Московский проспект, д. 93, литера Б",30.318731,59.89516
"806","193019, г.Санкт-Петербург, проспект Обуховской Обороны, д. 39, литера А",30.406794,59.912101
"807","191023, г.Санкт-Петербург, Апраксин переулок, д. 4, литера А",30.325008,59.929122
"808","191011, г.Санкт-Петербург, Думская улица, д. 1-3, литера А",30.328878,59.934162
"809","193168, г.Санкт-Петербург, улица Антонова-Овсеенко, д. 3, литера Н",30.458158,59.905637
"810","191023, г.Санкт-Петербург, Мучной переулок, д. 2, литера Г",30.3233392,59.9300065
"811","191011, г.Санкт-Петербург, набережная канала Грибоедова, д. 28/1, литера А",30.3258119,59.9326038
"812","191011, г.Санкт-Петербург, набережная канала Грибоедова, д. 28/1, литера А",30.3258119,59.9326038
"813","190068, г.Санкт-Петербург, набережная канала Грибоедова, д. 146, к. 2, литера Б",30.328756,59.938693
"814","195030, г.Санкт-Петербург, 3-я Жерновская улица, д. 23, литера А",30.4856597,59.9624919
"815","199048, г.Санкт-Петербург, 14-я линия В.О., д. 97, литера А",30.2610923,59.9469318
"816","196600, Санкт-Петербург, город Пушкин, Ленинградская улица, д. 9а, литера А",30.42484,59.725408
"817","193029, г.Санкт-Петербург, проспект Обуховской Обороны, д. 89, литера Б",30.428992,59.899229
"818","191011, г.Санкт-Петербург, набережная реки Фонтанки, д. 55, литера А",30.3360675,59.9291716
"819","190031, г.Санкт-Петербург, Гороховая улица, д. 41, литера А",30.3210945,59.9288449
"820","190068, г.Санкт-Петербург, Садовая улица, д. 77, литера А",30.2942702,59.9195837
"821","197720, Санкт-Петербург, город Зеленогорск, проспект Красных Командиров, д. 7, литера А",29.6913426,60.1938864
"822","197198, г.Санкт-Петербург, Большой  проспект П.С., д. 44, литера А",30.3010365,59.959359
"823","191011, г.Санкт-Петербург, Садовая улица, д. 7-9-11, литера А",30.335322,59.935337
"824","190031, г.Санкт-Петербург, улица Ефимова, д. 1/4, литера А",30.3188896,59.9264383
"825","197136, г.Санкт-Петербург, улица Ленина, д. 20, литера А",30.3040561,59.9621704
"826","199004, г.Санкт-Петербург, 6-я линия В.О., д. 35, литера Б",30.278632,59.944665
"827","191028, г.Санкт-Петербург, Литейный проспект, д. 30, литера А",30.3487965,59.9406139
"828","197022, г.Санкт-Петербург, Каменноостровский проспект, д. 43, литера А",30.3061312,59.9718236
"829","195196, г.Санкт-Петербург, Новочеркасский проспект, д. 57, к. 1, литера А",30.4197,59.921779
"830","195112, г.Санкт-Петербург, Заневский проспект, д. 29а, литера А",30.41635,59.929084
"831","195298, г.Санкт-Петербург, улица Коммуны, д. 59, литера Б",30.5048638,59.9422215
"832","197760, Санкт-Петербург, город Кронштадт, улица Восстания, д. 11, литера А",29.771376,60.000224
"833","198013, г.Санкт-Петербург, Московский проспект, д. 18, литера А",30.3182002,59.9206222
"834","195112, г.Санкт-Петербург, Новочеркасский проспект, д. 34, литера А",30.4144234,59.9270042
"835","197110, г.Санкт-Петербург, Большая Зеленина улица, д. 13, литера А",30.2924403,59.9613932
"836","195112, г.Санкт-Петербург, Новочеркасский проспект, д. 12, к. 1, литера А",30.409605,59.935905
"837","191104, г.Санкт-Петербург, Литейный проспект, д. 53, литера А",30.347621,59.936304
"838","191040, г.Санкт-Петербург, Лиговский проспект, д. 56, литера Е",30.357466,59.924388
"839","191028, г.Санкт-Петербург, Моховая улица, д. 27-29, литера А",30.3449937,59.9420184
"840","191028, г.Санкт-Петербург, Моховая улица, д. 27-29, литера А",30.3449937,59.9420184
"841","г.Санкт-Петербург, Невский проспект, д. 12, литера А",30.315731,59.93682
"842","г.Санкт-Петербург, Невский проспект, д. 12, литера А",30.315731,59.93682
"843","191186, г.Санкт-Петербург, Невский проспект, д. 13/9, литера А",30.316909,59.9363146
"844","191186, г.Санкт-Петербург, Невский проспект, д. 13/9, литера А",30.316909,59.9363146
"845","195112, г.Санкт-Петербург, Новочеркасский проспект, д. 37, к. 1, литера А",30.409736,59.931065
"846","195176, г.Санкт-Петербург, проспект Металлистов, д. 58, литера А",30.421664,59.956084
"847","191023, г.Санкт-Петербург, Садовая улица, д. 28-30, к. 48",30.3375562,59.9346057
"848","195248, г.Санкт-Петербург, проспект Энергетиков, д. 29, литера А",30.439143,59.955344
"849","195253, г.Санкт-Петербург, улица Маршала Тухачевского, д. 41, литера А",30.4308368,59.9602639
"850","Санкт-Петербург, город Петергоф, Константиновская улица, д. 16, литера З",29.916855,59.875019
"851","198510, Санкт-Петербург, город Петергоф, Константиновская улица, д. 16, литера Д",29.916855,59.875019
"852","198510, Санкт-Петербург, город Петергоф, Константиновская улица, д. 16, литера Б",29.916855,59.875019
"853","191119, г.Санкт-Петербург, Звенигородская улица, д. 28, литера А",30.342132,59.918229
"854","г.Санкт-Петербург, проспект Энгельса, д. 98, литера Г",30.317924,60.026105
"855","191119, г.Санкт-Петербург, улица Черняховского, д. 47, литера Б",30.36067,59.919189
"856","198215, г.Санкт-Петербург, Ленинский проспект, д. 117, к. 1, литера А",30.2482165,59.8507112
"857","191023, г.Санкт-Петербург, Садовая улица, д. 28-30, к. 37-38",30.3375562,59.9346057
"858","195196, г.Санкт-Петербург, Новочеркасский проспект, д. 45, к. 1, литера А",30.413072,59.927066
"859","197198, г.Санкт-Петербург, Большой  проспект П.С., д. 31, литера А",30.3009823,59.958768
"860","197101, г.Санкт-Петербург, Большая Пушкарская улица, д. 47, литера А",30.3125156,59.9641432
"861","191011, г.Санкт-Петербург, Невский проспект, д. 40-42, литера А",30.332383,59.934887
"862","195257, г.Санкт-Петербург, Гражданский проспект, д. 92, к. 1, литера А",30.4029504,60.0194806
"863","191119, г.Санкт-Петербург, Лиговский проспект, д. 121, литера А",30.35217,59.918667
"864","191119, г.Санкт-Петербург, Разъезжая улица, д. 43/1, литера А",30.352202,59.92125
"865","195009, г.Санкт-Петербург, улица Комсомола, д. 45, литера А",30.3534707,59.9556704
"866","191002, г.Санкт-Петербург, Загородный проспект, д. 21-23, литера А",30.3372431,59.9254715
"867","191104, г.Санкт-Петербург, Литейный проспект, д. 46, литера А",30.348631,59.937578
"868","г.Санкт-Петербург, улица Маяковского, д. 37, литера А",30.356292,59.941833
"869","191186, г.Санкт-Петербург, Невский проспект, д. 20, литера А",30.3219437,59.9360843
"870","191040, г.Санкт-Петербург, Лиговский проспект, д. 85, литера А",30.3562545,59.924452
"871","191040, г.Санкт-Петербург, Лиговский проспект, д. 56, литера Г",30.357466,59.924388
"872","191040, г.Санкт-Петербург, Лиговский проспект, д. 56, литера Г",30.357466,59.924388
"873","193144, г.Санкт-Петербург, Мытнинская улица, д. 7, литера А",30.37765,59.932907
"874","193167, г.Санкт-Петербург, Невский проспект, д. 166, литера А",30.3776596,59.9266086
"875","193024, г.Санкт-Петербург, Херсонская улица, д. 19, литера А",30.379394,59.928681
"876","г.Санкт-Петербург, проспект Стачек, д. 77, литера А",30.2601683,59.8661006
"877","191014, г.Санкт-Петербург, улица Маяковского, д. 37, литера Ю",30.355429,59.9418442
"878","191123, г.Санкт-Петербург, Захарьевская улица, д. 3, литера А",30.350599,59.94762
"879","192007, г.Санкт-Петербург, Лиговский проспект, д. 146, литера А",30.3498072,59.9133118
"880","191023, г.Санкт-Петербург, Садовая улица, д. 28-30, к. 28",30.3375562,59.9346057
"881","191023, г.Санкт-Петербург, Садовая улица, д. 28-30, к. 20",30.3375562,59.9346057
"882","191023, г.Санкт-Петербург, Садовая улица, д. 28-30, к. 20",30.3375562,59.9346057
"883","191023, г.Санкт-Петербург, Садовая улица, д. 28-30, к. 20",30.3375562,59.9346057
"884","г.Санкт-Петербург, Садовая улица, д. 28-30, к. 39",30.3291386,59.9313147
"885","191025, г.Санкт-Петербург, улица Восстания, д. 6, литера А",30.359688,59.933207
"886","191040, г.Санкт-Петербург, Пушкинская улица, д. 5, литера А",30.3572369,59.9305094
"887","196620, Санкт-Петербург, город Павловск, Конюшенная улица, д. 1, литера А",30.442904,59.686737
"888","196650, Санкт-Петербург, город Колпино, улица Индустриализации, д. 1, литера А",30.61865,59.757848
"889","197110, г.Санкт-Петербург, Большая Зеленина улица, д. 15, литера А",30.2912908,59.9619242
"890","197110, г.Санкт-Петербург, Большая Зеленина улица, д. 5, литера А",30.295114,59.959904
"891","191028, г.Санкт-Петербург, Моховая улица, д. 30, литера А",30.3455243,59.9412078
"892","197198, г.Санкт-Петербург, Большой  проспект П.С., д. 7/4, литера Б",30.2934188,59.9540078
"893","190000, г.Санкт-Петербург, Большая Морская улица, д. 47, литера А",30.3049556,59.9318464
"894","196031, г.Санкт-Петербург, Сенная площадь, д. 5, литера А",30.3179715,59.9276514
"895","198013, г.Санкт-Петербург, Московский проспект, д. 40, литера А",30.3184648,59.9143266
"896","191180, г.Санкт-Петербург, Гороховая улица, д. 71, литера А",30.330106,59.922742
"897","196641, Санкт-Петербург, поселок Металлострой, Садовая улица, д. 12, к. 2, литера А",30.5699001,59.8136558
"898","198013, г.Санкт-Петербург, Московский проспект, д. 36, литера А",30.318444,59.915003
"899","190000, г.Санкт-Петербург, улица Ефимова, д. 5, литера А",30.322616,59.92449
"900","193171, г.Санкт-Петербург, улица Полярников, д. 15, литера А",30.435696,59.877526
"901","193171, г.Санкт-Петербург, улица Полярников, д. 8, литера А",30.436946,59.876638
"902","192012, г.Санкт-Петербург, проспект Обуховской Обороны, д. 229/7, литера В",30.4694926,59.8645233
"903","192012, г.Санкт-Петербург, проспект Обуховской Обороны, д. 229/7, литера В",30.4694926,59.8645233
"904","192212, г.Санкт-Петербург, Белградская улица, д. 30, литера А",30.3659422,59.857314
"905","191014, г.Санкт-Петербург, улица Жуковского, д. 10, литера А",30.352236,59.93612
"906","191025, г.Санкт-Петербург, улица Маяковского, д. 10, литера А",30.354159,59.933637
"907","191002, г.Санкт-Петербург, Загородный проспект, д. 9, литера А",30.3437688,59.9269067
"908","191023, г.Санкт-Петербург, Гороховая улица, д. 32, литера А",30.320883,59.929771
"909","191002, г.Санкт-Петербург, набережная реки Фонтанки, д. 50, литера А",30.341975,59.930762
"910","191040, г.Санкт-Петербург, Лиговский проспект, д. 53, литера А",30.3592878,59.9292513
"911","г.Санкт-Петербург, проспект Стачек, д. 73, литера А",30.259538,59.868292
"912","191023, г.Санкт-Петербург, Садовая улица, д. 28-30, к. 1",30.3265151,59.9298431
"913","191023, г.Санкт-Петербург, Садовая улица, д. 28-30, к. 1",30.3265151,59.9298431
"914","191023, г.Санкт-Петербург, Садовая улица, д. 28-30, к. 1",30.3265151,59.9298431
"915","191023, г.Санкт-Петербург, Садовая улица, д. 28-30, к. 1",30.3265151,59.9298431
"916","192007, г.Санкт-Петербург, Лиговский проспект, д. 175, литера А",30.3489192,59.9132699
"917","197022, г.Санкт-Петербург, Петропавловская улица, д. 6, литера А",30.314508,59.96687
"918","192007, г.Санкт-Петербург, Лиговский проспект, д. 142, литера А",30.3501468,59.9136831
"919","196070, г.Санкт-Петербург, Московский проспект, д. 191, литера А",30.3209281,59.8645461
"920","197101, г.Санкт-Петербург, Большой  проспект П.С., д. 67, литера А",30.3095318,59.9639388
"921","191186, г.Санкт-Петербург, Большая Морская улица, д. 6, литера А",30.317968,59.937222
"922","191002, г.Санкт-Петербург, улица Рубинштейна, д. 23, литера А",30.342029,59.9278749
"923","195272, г.Санкт-Петербург, Уткин проспект, д. 13, к. 5, литера А",30.43367,59.933819
"924","191023, г.Санкт-Петербург, Садовая улица, д. 28-30, к. 18-19",30.3375562,59.9346057
"925","191023, г.Санкт-Петербург, Садовая улица, д. 28-30, к. 18-19",30.3375562,59.9346057
"926","191028, г.Санкт-Петербург, Литейный проспект, д. 24, литера А",30.348903,59.942496
"927","191186, г.Санкт-Петербург, Невский проспект, д. 11/2, литера А",30.3156225,59.9364316
"928","191123, г.Санкт-Петербург, Кирочная улица, д. 28, литера А",30.3600794,59.9441093
"929","191011, г.Санкт-Петербург, Инженерная улица, д. 6, литера А",30.337036,59.937667
"930","191186, г.Санкт-Петербург, Невский проспект, д. 18, литера А",30.3185953,59.9364647
"931","197110, г.Санкт-Петербург, Большая Зеленина улица, д. 14/18, литера А",30.2909179,59.9616713
"932","197110, г.Санкт-Петербург, Большая Зеленина улица, д. 14/18, литера А",30.2909179,59.9616713
"933","191025, г.Санкт-Петербург, Владимирский проспект, д. 16, литера А",30.348034,59.929466
"934","192012, г.Санкт-Петербург, проспект Обуховской Обороны, д. 251, литера А",30.477814,59.860775
"935","191186, г.Санкт-Петербург, набережная канала Грибоедова, д. 25, литера А",30.3249209,59.9329265
"936","195043, г.Санкт-Петербург, Братская улица, д. 12, литера А",30.520616,59.974725
"937","г.Санкт-Петербург, проспект Стачек, д. 17, литера А",30.274126,59.89354
"938","191186, г.Санкт-Петербург, Миллионная улица, д. 11, литера А",30.3247901,59.944107
"939","195196, г.Санкт-Петербург, Новочеркасский проспект, д. 47, к. 1, литера А",30.413806,59.926332
"940","191011, г.Санкт-Петербург, Итальянская улица, д. 10/5, литера А",30.329386,59.936526
"941","191023, г.Санкт-Петербург, Садовая улица, д. 28-30, к. 3",30.3265151,59.9298431
"942","190031, г.Санкт-Петербург, Спасский переулок, д. 1/46, литера А",30.3168528,59.9293626
"943","191040, г.Санкт-Петербург, Лиговский проспект, д. 56, литера А",30.357466,59.924388
"944","198152, г.Санкт-Петербург, проспект Стачек, д. 74/1, литера А",30.2741161,59.8990268
"945","196158, г.Санкт-Петербург, Пулковская улица, д. 11, литера А",30.348702,59.838294
"946","191186, г.Санкт-Петербург, Невский проспект, д. 22-24, литера А",30.3242128,59.9358955
"947","191186, г.Санкт-Петербург, Невский проспект, д. 22-24, литера А",30.3242128,59.9358955
"948","191186, г.Санкт-Петербург, Невский проспект, д. 22-24, литера А",30.3242128,59.9358955
"949","191186, г.Санкт-Петербург, Невский проспект, д. 22-24, литера А",30.3242128,59.9358955
"950","190031, г.Санкт-Петербург, Садовая улица, д. 42, литера А",30.3161496,59.925716
"951","191023, г.Санкт-Петербург, Садовая улица, д. 32/1, литера А",30.323797,59.92906
"952","191023, г.Санкт-Петербург, Садовая улица, д. 32/1, литера А",30.323797,59.92906
"953","194044, г.Санкт-Петербург, Большой Сампсониевский проспект, д. 21, литера А",30.3444949,59.9644885
"954","195030, г.Санкт-Петербург, проспект Энтузиастов, д. 49, к. 1, литера А",30.4932401,59.951722
"955","192007, г.Санкт-Петербург, Лиговский проспект, д. 166, литера Б",30.3488087,59.9116425
"956","190031, г.Санкт-Петербург, Гороховая улица, д. 53, литера А",30.3191988,59.9303535
"957","192007, г.Санкт-Петербург, Лиговский проспект, д. 194, литера А",30.347458,59.9095528
"958","196084, г.Санкт-Петербург, Московский проспект, д. 66, литера А",30.3193545,59.9075277
"959","198260, г.Санкт-Петербург, улица Солдата Корзуна, д. 40, литера А",30.220698,59.831116
"960","196084, г.Санкт-Петербург, Московский проспект, д. 127, литера А",30.318283,59.886167
"961","197183, г.Санкт-Петербург, улица Савушкина, д. 20, литера А",30.29282,59.985486
"962","193036, г.Санкт-Петербург, Лиговский проспект, д. 29, литера А",30.362009,59.933622
"963","195009, г.Санкт-Петербург, Финский переулок, д. 9, литера А",30.354589,59.956442
"964","196066, г.Санкт-Петербург, Московский проспект, д. 195, литера А",30.3207377,59.8504954
"965","198095, г.Санкт-Петербург, проспект Стачек, д. 6, литера А",30.2760118,59.8987658
"966","191186, г.Санкт-Петербург, Невский проспект, д. 19, литера А",30.3215562,59.9357268
"967","190000, г.Санкт-Петербург, Гороховая улица, д. 25, литера А",30.3178914,59.9309917
"968","190008, г.Санкт-Петербург, Канонерская улица, д. 14, литера А",30.2905338,59.9195909
"969","191011, г.Санкт-Петербург, Думская улица, д. 1-3, литера А",30.328878,59.934162
"970","191011, г.Санкт-Петербург, Невский проспект, д. 44, литера А",30.333041,59.934795
"971","191186, г.Санкт-Петербург, Малая Конюшенная улица, д. 16/26, литера А",30.32524,59.9360137
"972","191023, г.Санкт-Петербург, Мучной переулок, д. 2, литера Г",30.3233392,59.9300065
"973","г.Санкт-Петербург, улица Маршала Захарова, д. 16, к. 1, литера А",30.16751,59.858063
"974","196084, г.Санкт-Петербург, Московский проспект, д. 106, литера А",30.320093,59.894588
"975","199057, г.Санкт-Петербург, Уральская улица, д. 8, литера А",30.2631379,59.9525226
"976","199034, г.Санкт-Петербург, 1-я линия В.О., д. 16, литера А",30.2913791,59.9405364
"977","199178, г.Санкт-Петербург, 10-я линия В.О., д. 15б, литера А",30.27612,59.939801
"978","199406, г.Санкт-Петербург, улица Шевченко, д. 27, литера А,",30.2427056,59.9379849
"979","196105, г.Санкт-Петербург, Благодатная улица, д. 40, литера А",30.333775,59.87639
"980","191123, г.Санкт-Петербург, Захарьевская улица, д. 14, литера У",30.3578301,59.9479783
"981","193024, г.Санкт-Петербург, Невский проспект, д. 141, литера А",30.377353,59.92604
"982","190031, г.Санкт-Петербург, набережная канала Грибоедова, д. 62, литера А",30.3142299,59.9257813
"983","196620, Санкт-Петербург, город Павловск, Садовая улица, д. 9, литера А",30.439516,59.688262
"984","196084, г.Санкт-Петербург, улица Коли Томчака, д. 1/6, литера К",30.3243427,59.8927294
"985","197198, г.Санкт-Петербург, улица Блохина, д. 15, литера А",30.300859,59.952006
"986","197733, Санкт-Петербург, поселок Комарово, Большой проспект, д. 13а, литера А",29.860923,60.175612
"987","197022, г.Санкт-Петербург, Каменноостровский проспект, д. 53/22, литера А",30.307247,59.9708642
"988","195112, г.Санкт-Петербург, Новочеркасский проспект, д. 21, литера А",30.406843,59.936293
"989","191104, г.Санкт-Петербург, набережная реки Фонтанки, д. 32/1, литера А",30.340174,59.939333
"990","193024, г.Санкт-Петербург, Невский проспект, д. 164, литера А",30.377227,59.9267846
"991","191011, г.Санкт-Петербург, Садовая улица, д. 7-9-11, литера А",30.335322,59.935337
"992","190031, г.Санкт-Петербург, улица Ефимова, д. 1/4, литера А",30.3188896,59.9264383
"993","197022, г.Санкт-Петербург, Большой  проспект П.С., д. 53, литера А",30.3065844,59.9622221
"994","196066, г.Санкт-Петербург, Московский проспект, д. 206, литера А",30.3216493,59.8573271
"995","197706, Санкт-Петербург, город Сестрорецк, Лесная улица, д. 11, литера А",29.9583495,60.1076677
"996","197706, Санкт-Петербург, город Сестрорецк, Лесная улица, д. 13/42, литера А",29.9583495,60.1076677
"997","196128, г.Санкт-Петербург, Благодатная улица, д. 16, к. 2, литера Б",30.3119597,59.8757153
"998","198013, г.Санкт-Петербург, Можайская улица, д. 1, литера А",30.32462,59.918286
"999","191119, г.Санкт-Петербург, Коломенская улица, д. 29, литера А",30.3527443,59.9228753
"1000","190000, г.Санкт-Петербург, Большая Морская улица, д. 55, литера А",30.302408,59.931501
"1001","192174, г.Санкт-Петербург, бульвар Красных Зорь, д. 8, к. 2, литера З",30.443517,59.870903
"1002","196655, Санкт-Петербург, город Колпино, улица Веры Слуцкой, д. 38, литера А",30.582276,59.742648
"1003","196070, г.Санкт-Петербург, Московский проспект, д. 167, литера А",30.320031,59.864001
"1004","197042, г.Санкт-Петербург, Петровский проспект, д. 1, литера КЛ",NA,NA
"1005","191040, г.Санкт-Петербург, Лиговский проспект, д. 110, литера Б",30.3580735,59.9259118
"1006","197110, г.Санкт-Петербург, Большая Зеленина улица, д. 13, литера А",30.2924403,59.9613932
"1007","193124, г.Санкт-Петербург, улица Пролетарской Диктатуры, д. 6, литера А",30.389212,59.947952
"1008","193024, г.Санкт-Петербург, 2-я Советская улица, д. 27/2, литера А",30.365394,59.933309
"1009","194044, г.Санкт-Петербург, Большой Сампсониевский проспект, д. 38-40, литера А",30.3408152,59.9700607
"1010","191180, г.Санкт-Петербург, Загородный проспект, д. 45, литера А",30.3299378,59.9214648
"1011","197101, г.Санкт-Петербург, Каменноостровский проспект, д. 26-28, литера А",30.313908,59.962235
"1012","190068, г.Санкт-Петербург, Большая Подьяческая улица, д. 24, литера А",30.3055067,59.9222241
"1013","191002, г.Санкт-Петербург, Загородный проспект, д. 28, литера А",30.3401802,59.9251445
"1014","198020, г.Санкт-Петербург, Старо-Петергофский проспект, д. 26, литера В",30.2763959,59.9061832
"1015","191119, г.Санкт-Петербург, Днепропетровская улица, д. 13, литера В",30.362652,59.918634
"1016","195176, г.Санкт-Петербург, проспект Металлистов, д. 58, литера А",30.421664,59.956084
"1017","191002, г.Санкт-Петербург, Разъезжая улица, д. 9, литера А",30.344106,59.925188
"1018","Санкт-Петербург, город Петергоф, Эрлеровский  бульвар, д. 12/2, литера Б",29.91381,59.871995
"1019","199178, г.Санкт-Петербург, 13-я линия В.О., д. 22, литера Д",30.273197,59.938637
"1020","190000, г.Санкт-Петербург, улица Глинки, д. 3-5-7, литера А",30.295368,59.92722
"1021","195253, г.Санкт-Петербург, улица Маршала Тухачевского, д. 41, литера А",30.4308368,59.9602639
"1022","г.Санкт-Петербург, проспект Стачек, д. 80, литера А",30.2594587,59.8726029
"1023","190031, г.Санкт-Петербург, набережная реки Фонтанки, д. 109, литера А",30.318498,59.9229146
"1024","198412, Санкт-Петербург, город Ломоносов, 1-я Нижняя улица, д. 9, литера А",29.769617,59.9161412
"1025","199048, г.Санкт-Петербург, Малый проспект В.О., д. 41, литера А",30.265117,59.94459
"1026","198412, Санкт-Петербург, город Ломоносов, улица Рубакина, д. 16, литера Б",29.766093,59.916482
"1027","196084, г.Санкт-Петербург, Московский проспект, д. 148, литера Д",30.3204359,59.8855368
"1028","190000, г.Санкт-Петербург, Большая Морская улица, д. 53/8, литера А",30.3033853,59.9315089
"1029","198215, г.Санкт-Петербург, Ленинский проспект, д. 117, к. 1, литера А",30.2482165,59.8507112
"1030","197046, г.Санкт-Петербург, Троицкая площадь П.С., д. 1, литера А",30.327883,59.952756
"1031","191023, г.Санкт-Петербург, Садовая улица, д. 28-30, к. 37-38",30.3375562,59.9346057
"1032","194100, г.Санкт-Петербург, Лесной проспект, д. 39, литера Б",30.3437586,59.9815106
"1033","197046, г.Санкт-Петербург, Пеньковая улица, д. 8/6, литера А",30.333941,59.955997
"1034","193130, г.Санкт-Петербург, 8-я Советская улица, д. 16/25, литера А",30.3736192,59.9369005
"1035","195252, г.Санкт-Петербург, улица Софьи Ковалевской, д. 3, к. 1, литера А",30.4116026,60.0119406
"1036","191186, г.Санкт-Петербург, Казанская улица, д. 17-19, литера А",30.3190914,59.9310492
"1037","195257, г.Санкт-Петербург, проспект Науки, д. 10, к. 1, литера А",30.391088,60.01511
"1038","191002, г.Санкт-Петербург, Загородный проспект, д. 21-23, литера А",30.3372431,59.9254715
"1039","195043, г.Санкт-Петербург, Братская улица, д. 18, литера А",30.523897,59.975562
"1040","191123, г.Санкт-Петербург, Саперный переулок, д. 9, литера А",30.357951,59.9408277
"1041","191186, г.Санкт-Петербург, набережная канала Грибоедова, д. 14, литера А",30.3269958,59.9359348
"1042","191126, г.Санкт-Петербург, Звенигородская улица, д. 30, литера А",30.342854,59.918342
"1043","193167, г.Санкт-Петербург, Невский проспект, д. 166, литера А",30.3776596,59.9266086
"1044","193144, г.Санкт-Петербург, Мытнинская улица, д. 1/20, литера А",30.3785441,59.9348561
"1045","г.Санкт-Петербург, проспект Стачек, д. 77, литера А",30.2601683,59.8661006
"1046","191023, г.Санкт-Петербург, Садовая улица, д. 28-30, к. 28",30.3375562,59.9346057
"1047","191023, г.Санкт-Петербург, Садовая улица, д. 28-30, к. 28",30.3375562,59.9346057
"1048","191023, г.Санкт-Петербург, Садовая улица, д. 28-30, к. 20",30.3375562,59.9346057
"1049","191023, г.Санкт-Петербург, Садовая улица, д. 28-30, к. 20",30.3375562,59.9346057
"1050","191023, г.Санкт-Петербург, Садовая улица, д. 28-30, к. 20",30.3375562,59.9346057
"1051","191186, г.Санкт-Петербург, Гороховая улица, д. 24/24, литера А",30.3189018,59.9307761
"1052","191011, г.Санкт-Петербург, Невский проспект, д. 60, литера А",30.3393286,59.9339952
"1053","191025, г.Санкт-Петербург, Литейный проспект, д. 64/78, литера А",30.348357,59.93317
"1054","191180, г.Санкт-Петербург, набережная реки Фонтанки, д. 84, литера А",30.3317367,59.9264665
"1055","191025, г.Санкт-Петербург, Пушкинская улица, д. 20, литера А",30.3561022,59.9276483
"1056","193036, г.Санкт-Петербург, Невский проспект, д. 95, литера А",30.366003,59.930071
"1057","197022, г.Санкт-Петербург, улица Всеволода Вишневского, д. 18, литера А",30.3001077,59.9692194
"1058","191014, г.Санкт-Петербург, улица Жуковского, д. 36, к. 1, литера А",30.3630421,59.9359211
"1059","195196, г.Санкт-Петербург, Новочеркасский проспект, д. 43/17, литера А",30.41211,59.92803
"1060","190068, г.Санкт-Петербург, Английский проспект, д. 40, литера А",30.2868472,59.920914
"1061","191028, г.Санкт-Петербург, набережная реки Фонтанки, д. 30, литера А",30.3436282,59.9386456
"1062","193029, г.Санкт-Петербург, улица Ольминского, д. 1/81, литера Б",30.4263176,59.9007106
"1063","192289, г.Санкт-Петербург, Бухарестская улица, д. 142, к. 1, литера В",30.418829,59.834721
"1064","190031, г.Санкт-Петербург, Московский проспект, д. 2/6, литера А",30.3181831,59.9245421
"1065","190031, г.Санкт-Петербург, Московский проспект, д. 2/6, литера А",30.3181831,59.9245421
"1066","191028, г.Санкт-Петербург, Кирочная улица, д. 8, литера И",30.3532207,59.9441184
"1067","195043, г.Санкт-Петербург, Камышинская улица, д. 9, к. 4, литера А",30.5132507,59.9719644
"1068","192212, г.Санкт-Петербург, Белградская улица, д. 30, литера А",30.3659422,59.857314
"1069","191119, г.Санкт-Петербург, Днепропетровская улица, д. 13, литера Б",30.362652,59.918634
"1070","193036, г.Санкт-Петербург, Невский проспект, д. 130, литера А",30.366841,59.930464
"1071","193167, г.Санкт-Петербург, Невский проспект, д. 175, литера А",30.383529,59.923947
"1072","191023, г.Санкт-Петербург, Садовая улица, д. 28-30, к. 17",30.3265151,59.9298431
"1073","191023, г.Санкт-Петербург, Садовая улица, д. 28-30, к. 17",30.3265151,59.9298431
"1074","193144, г.Санкт-Петербург, Мытнинская улица, д. 5/2, литера А",30.3745135,59.930788
"1075","193036, г.Санкт-Петербург, Невский проспект, д. 124, литера А",30.3650847,59.9306764
